{"type":"FeatureCollection","generator":"Thurri Generator","copyright":"Thurri Basic Copytight","timestamp":"2021-12-07T10:16:30+00:00","features":[{"type":"Feature","id":3139,"properties":{"id":3139,"lien":"https://thurii.com/","nom":"Refuge de Bise","sym":" Residence","coord":{"alt":1502},"type":{"id":9,"valeur":"lodging","icon":"lodging"},"places":{"nom":"Places pour dormir","valeur":44},"etat":{"valeur":"undefined"}},"geometry":{"type":"Point","coordinates":[6.76453,46.3303]}},{"type":"Feature","id":3140,"properties":{"id":3140,"lien":"https://thurii.com/","nom":"Refuge De Trébentaz","sym":" Residence","coord":{"alt":1866},"type":{"id":9,"valeur":"lodging","icon":"lodging"},"places":{"nom":"Places pour dormir","valeur":28},"etat":{"valeur":"undefined"}},"geometry":{"type":"Point","coordinates":[6.79206,46.2675]}},{"type":"Feature","id":3141,"properties":{"id":3141,"lien":"https://thurii.com/","nom":"Refuge de Praz Dzeures","sym":" Residence","coord":{"alt":1750},"type":{"id":9,"valeur":"lodging","icon":"lodging"},"places":{"nom":"Places pour dormir","valeur":25},"etat":{"valeur":"undefined"}},"geometry":{"type":"Point","coordinates":[6.29816,45.8155]}},{"type":"Feature","id":3142,"properties":{"id":3142,"lien":"https://thurii.com/","nom":"Cabane des Ordons","sym":" Residence","coord":{"alt":910},"type":{"id":9,"valeur":"lodging","icon":"lodging"},"places":{"nom":"Places pour dormir","valeur":27},"etat":{"valeur":"undefined"}},"geometry":{"type":"Point","coordinates":[7.22275,47.3861]}},{"type":"Feature","id":3143,"properties":{"id":3143,"lien":"https://thurii.com/","nom":"Refuge d Orgeval","sym":" Crossing","coord":{"alt":1605},"type":{"id":9,"valeur":"lodging","icon":"lodging"},"places":{"nom":"Places pour dormir","valeur":20},"etat":{"valeur":"undefined"}},"geometry":{"type":"Point","coordinates":[6.2389,45.6793]}},{"type":"Feature","id":3144,"properties":{"id":3144,"lien":"https://thurii.com/","nom":"Chalet du Lessy","sym":" Residence","coord":{"alt":1365},"type":{"id":9,"valeur":"lodging","icon":"lodging"},"places":{"nom":"Places pour dormir","valeur":23},"etat":{"valeur":"undefined"}},"geometry":{"type":"Point","coordinates":[6.76187,46.939]}},{"type":"Feature","id":3145,"properties":{"id":3145,"lien":"https://thurii.com/","nom":"Le Mélèze","sym":" Crossing","coord":{"alt":1347},"type":{"id":9,"valeur":"lodging","icon":"lodging"},"places":{"nom":"Places pour dormir","valeur":17},"etat":{"valeur":"undefined"}},"geometry":{"type":"Point","coordinates":[7.01519,47.1043]}},{"type":"Feature","id":3146,"properties":{"id":3146,"lien":"https://thurii.com/","nom":"La Rochette","sym":" Residence","coord":{"alt":1300},"type":{"id":9,"valeur":"lodging","icon":"lodging"},"places":{"nom":"Places pour dormir","valeur":32},"etat":{"valeur":"undefined"}},"geometry":{"type":"Point","coordinates":[7.26636,47.2154]}},{"type":"Feature","id":3147,"properties":{"id":3147,"lien":"https://thurii.com/","nom":"Les Rochats","sym":" Residence","coord":{"alt":1164},"type":{"id":9,"valeur":"lodging","icon":"lodging"},"places":{"nom":"Places pour dormir","valeur":30},"etat":{"valeur":"undefined"}},"geometry":{"type":"Point","coordinates":[6.67236,46.8895]}},{"type":"Feature","id":3148,"properties":{"id":3148,"lien":"https://thurii.com/","nom":"Les Chaînions","sym":" Residence","coord":{"alt":900},"type":{"id":9,"valeur":"lodging","icon":"lodging"},"places":{"nom":"Places pour dormir","valeur":20},"etat":{"valeur":"undefined"}},"geometry":{"type":"Point","coordinates":[7.07543,47.3715]}},{"type":"Feature","id":3149,"properties":{"id":3149,"lien":"https://thurii.com/","nom":"La Serment","sym":" Residence","coord":{"alt":1235},"type":{"id":9,"valeur":"lodging","icon":"lodging"},"places":{"nom":"Places pour dormir","valeur":98},"etat":{"valeur":"undefined"}},"geometry":{"type":"Point","coordinates":[6.85311,47.0463]}},{"type":"Feature","id":3150,"properties":{"id":3150,"lien":"https://thurii.com/","nom":"Grandsonnaz-Dessus","sym":" Residence","coord":{"alt":1486},"type":{"id":9,"valeur":"lodging","icon":"lodging"},"places":{"nom":"Places pour dormir","valeur":8},"etat":{"valeur":"undefined"}},"geometry":{"type":"Point","coordinates":[6.55162,46.8596]}},{"type":"Feature","id":3151,"properties":{"id":3151,"lien":"https://thurii.com/","nom":"Hôtel  Chasseral","sym":" Residence","coord":{"alt":1548},"type":{"id":9,"valeur":"lodging","icon":"lodging"},"places":{"nom":"Places pour dormir","valeur":156},"etat":{"valeur":"undefined"}},"geometry":{"type":"Point","coordinates":[7.04556,47.1269]}},{"type":"Feature","id":3152,"properties":{"id":3152,"lien":"https://thurii.com/","nom":"Gîte La Dressère","sym":" Residence","coord":{"alt":1550},"type":{"id":9,"valeur":"lodging","icon":"lodging"},"places":{"nom":"Places pour dormir","valeur":20},"etat":{"valeur":"undefined"}},"geometry":{"type":"Point","coordinates":[2.10091,42.6154]}},{"type":"Feature","id":3153,"properties":{"id":3153,"lien":"https://thurii.com/","nom":"Hôtel du Chasseron","sym":" Residence","coord":{"alt":1585},"type":{"id":9,"valeur":"lodging","icon":"lodging"},"places":{"nom":"Places pour dormir","valeur":20},"etat":{"valeur":"undefined"}},"geometry":{"type":"Point","coordinates":[6.53898,46.8504]}},{"type":"Feature","id":3154,"properties":{"id":3154,"lien":"https://thurii.com/","nom":"Chalet du Rocher","sym":" Residence","coord":{"alt":1309},"type":{"id":9,"valeur":"lodging","icon":"lodging"},"places":{"nom":"Places pour dormir","valeur":20},"etat":{"valeur":"undefined"}},"geometry":{"type":"Point","coordinates":[6.54562,46.8387]}},{"type":"Feature","id":3155,"properties":{"id":3155,"lien":"https://thurii.com/","nom":"Métairie de Dombresson-Frienisberg","sym":" Residence","coord":{"alt":1415},"type":{"id":9,"valeur":"lodging","icon":"lodging"},"places":{"nom":"Places pour dormir","valeur":35},"etat":{"valeur":"undefined"}},"geometry":{"type":"Point","coordinates":[7.02877,47.1211]}},{"type":"Feature","id":3156,"properties":{"id":3156,"lien":"https://thurii.com/","nom":"Combioz","sym":" Residence","coord":{"alt":1306},"type":{"id":9,"valeur":"lodging","icon":"lodging"},"places":{"nom":"Places pour dormir","valeur":16},"etat":{"valeur":"undefined"}},"geometry":{"type":"Point","coordinates":[7.26641,47.2646]}},{"type":"Feature","id":3157,"properties":{"id":3157,"lien":"https://thurii.com/","nom":"Refuge La Yourte des Ayes","sym":" Crossing","coord":{"alt":1980},"type":{"id":9,"valeur":"lodging","icon":"lodging"},"places":{"nom":"Places pour dormir","valeur":12},"etat":{"valeur":"undefined"}},"geometry":{"type":"Point","coordinates":[6.67265,44.8333]}},{"type":"Feature","id":3158,"properties":{"id":3158,"lien":"https://thurii.com/","nom":"Cabane du Fiottet","sym":" Residence","coord":{"alt":1385},"type":{"id":9,"valeur":"lodging","icon":"lodging"},"places":{"nom":"Places pour dormir","valeur":17},"etat":{"valeur":"undefined"}},"geometry":{"type":"Point","coordinates":[6.81613,47.0176]}},{"type":"Feature","id":3159,"properties":{"id":3159,"lien":"https://thurii.com/","nom":"Ferme du Soliat","sym":" Residence","coord":{"alt":1386},"type":{"id":9,"valeur":"lodging","icon":"lodging"},"places":{"nom":"Places pour dormir","valeur":60},"etat":{"valeur":"undefined"}},"geometry":{"type":"Point","coordinates":[6.71595,46.9365]}},{"type":"Feature","id":3160,"properties":{"id":3160,"lien":"https://thurii.com/","nom":"Gîte de auberge Franc Comtoise","sym":" Residence","coord":{"alt":983},"type":{"id":9,"valeur":"lodging","icon":"lodging"},"places":{"nom":"Places pour dormir","valeur":20},"etat":{"valeur":"undefined"}},"geometry":{"type":"Point","coordinates":[6.66684,47.0733]}},{"type":"Feature","id":3161,"properties":{"id":3161,"lien":"https://thurii.com/","nom":"Cabane des Becs de Bosson","sym":" Residence","coord":{"alt":2985},"type":{"id":9,"valeur":"lodging","icon":"lodging"},"places":{"nom":"Places pour dormir","valeur":50},"etat":{"valeur":"undefined"}},"geometry":{"type":"Point","coordinates":[7.51634,46.1642]}},{"type":"Feature","id":3162,"properties":{"id":3162,"lien":"https://thurii.com/","nom":"Gîte d alpage de La Peule","sym":" Residence","coord":{"alt":2071},"type":{"id":9,"valeur":"lodging","icon":"lodging"},"places":{"nom":"Places pour dormir","valeur":58},"etat":{"valeur":"undefined"}},"geometry":{"type":"Point","coordinates":[7.11259,45.8987]}},{"type":"Feature","id":3163,"properties":{"id":3163,"lien":"https://thurii.com/","nom":"Le Cassu","sym":" Residence","coord":{"alt":1760},"type":{"id":9,"valeur":"lodging","icon":"lodging"},"places":{"nom":"Places pour dormir","valeur":46},"etat":{"valeur":"undefined"}},"geometry":{"type":"Point","coordinates":[6.94422,44.8203]}},{"type":"Feature","id":3164,"properties":{"id":3164,"lien":"https://thurii.com/","nom":"Gite 7 Degres Est","sym":" Residence","coord":{"alt":1730},"type":{"id":9,"valeur":"lodging","icon":"lodging"},"places":{"nom":"Places pour dormir","valeur":28},"etat":{"valeur":"undefined"}},"geometry":{"type":"Point","coordinates":[6.9936,44.7597]}},{"type":"Feature","id":3165,"properties":{"id":3165,"lien":"https://thurii.com/","nom":"Cabane du Col de Mille","sym":" Residence","coord":{"alt":2473},"type":{"id":9,"valeur":"lodging","icon":"lodging"},"places":{"nom":"Places pour dormir","valeur":40},"etat":{"valeur":"undefined"}},"geometry":{"type":"Point","coordinates":[7.20657,46.0137]}},{"type":"Feature","id":3166,"properties":{"id":3166,"lien":"https://thurii.com/","nom":"Gîte des Monges","sym":" Residence","coord":{"alt":1130},"type":{"id":9,"valeur":"lodging","icon":"lodging"},"places":{"nom":"Places pour dormir","valeur":28},"etat":{"valeur":"undefined"}},"geometry":{"type":"Point","coordinates":[6.12754,44.2376]}},{"type":"Feature","id":3167,"properties":{"id":3167,"lien":"https://thurii.com/","nom":"Chalet de Roche-Claire","sym":" Residence","coord":{"alt":1285},"type":{"id":9,"valeur":"lodging","icon":"lodging"},"places":{"nom":"Places pour dormir","valeur":16},"etat":{"valeur":"undefined"}},"geometry":{"type":"Point","coordinates":[6.75571,47.0229]}},{"type":"Feature","id":3168,"properties":{"id":3168,"lien":"https://thurii.com/","nom":"La Jasserie","sym":" Residence","coord":{"alt":1310},"type":{"id":9,"valeur":"lodging","icon":"lodging"},"places":{"nom":"Places pour dormir","valeur":22},"etat":{"valeur":"undefined"}},"geometry":{"type":"Point","coordinates":[4.57384,45.3908]}},{"type":"Feature","id":3169,"properties":{"id":3169,"lien":"https://thurii.com/","nom":"Gîte-Maison d accueil de Château-Verdun","sym":" Residence","coord":{"alt":1375},"type":{"id":9,"valeur":"lodging","icon":"lodging"},"places":{"nom":"Places pour dormir","valeur":67},"etat":{"valeur":"undefined"}},"geometry":{"type":"Point","coordinates":[7.21431,45.825]}},{"type":"Feature","id":3170,"properties":{"id":3170,"lien":"https://thurii.com/","nom":"Les Cabanes de Pellier","sym":" Residence","coord":{"alt":604},"type":{"id":9,"valeur":"lodging","icon":"lodging"},"places":{"nom":"Places pour dormir","valeur":8},"etat":{"valeur":"undefined"}},"geometry":{"type":"Point","coordinates":[5.76868,46.6245]}},{"type":"Feature","id":3171,"properties":{"id":3171,"lien":"https://thurii.com/","nom":"Gîte le Cris-Cath","sym":" Residence","coord":{"alt":945},"type":{"id":9,"valeur":"lodging","icon":"lodging"},"places":{"nom":"Places pour dormir","valeur":8},"etat":{"valeur":"undefined"}},"geometry":{"type":"Point","coordinates":[5.76928,44.7476]}},{"type":"Feature","id":3172,"properties":{"id":3172,"lien":"https://thurii.com/","nom":"La Ferme du Retord","sym":" Residence","coord":{"alt":1270},"type":{"id":9,"valeur":"lodging","icon":"lodging"},"places":{"nom":"Places pour dormir","valeur":28},"etat":{"valeur":"undefined"}},"geometry":{"type":"Point","coordinates":[5.72172,46.0894]}},{"type":"Feature","id":3173,"properties":{"id":3173,"lien":"https://thurii.com/","nom":"La Traverse","sym":" Residence","coord":{"alt":1173},"type":{"id":9,"valeur":"lodging","icon":"lodging"},"places":{"nom":"Places pour dormir","valeur":80},"etat":{"valeur":"undefined"}},"geometry":{"type":"Point","coordinates":[4.51409,45.3686]}},{"type":"Feature","id":3174,"properties":{"id":3174,"lien":"https://thurii.com/","nom":"Maison Saint-Pierre","sym":" Residence","coord":{"alt":1635},"type":{"id":9,"valeur":"lodging","icon":"lodging"},"places":{"nom":"Places pour dormir","valeur":58},"etat":{"valeur":"undefined"}},"geometry":{"type":"Point","coordinates":[7.20809,45.9496]}},{"type":"Feature","id":3175,"properties":{"id":3175,"lien":"https://thurii.com/","nom":"La Maison dans la nature","sym":" Residence","coord":{"alt":1227},"type":{"id":9,"valeur":"lodging","icon":"lodging"},"places":{"nom":"Places pour dormir","valeur":46},"etat":{"valeur":"undefined"}},"geometry":{"type":"Point","coordinates":[4.52283,45.2468]}},{"type":"Feature","id":3176,"properties":{"id":3176,"lien":"https://thurii.com/","nom":"Cabane de la Tsissette","sym":" Residence","coord":{"alt":2005},"type":{"id":9,"valeur":"lodging","icon":"lodging"},"places":{"nom":"Places pour dormir","valeur":16},"etat":{"valeur":"undefined"}},"geometry":{"type":"Point","coordinates":[7.15563,45.9537]}},{"type":"Feature","id":3177,"properties":{"id":3177,"lien":"https://thurii.com/","nom":"Refuge de Basse Rua","sym":" Residence","coord":{"alt":1760},"type":{"id":9,"valeur":"lodging","icon":"lodging"},"places":{"nom":"Places pour dormir","valeur":24},"etat":{"valeur":"undefined"}},"geometry":{"type":"Point","coordinates":[6.71861,44.6235]}},{"type":"Feature","id":3178,"properties":{"id":3178,"lien":"https://thurii.com/","nom":"Gîte de la Léchère","sym":" Residence","coord":{"alt":1710},"type":{"id":9,"valeur":"lodging","icon":"lodging"},"places":{"nom":"Places pour dormir","valeur":35},"etat":{"valeur":"undefined"}},"geometry":{"type":"Point","coordinates":[7.09856,45.9202]}},{"type":"Feature","id":3179,"properties":{"id":3179,"lien":"https://thurii.com/","nom":"Gîte de Baudinard","sym":" Residence","coord":{"alt":1165},"type":{"id":9,"valeur":"lodging","icon":"lodging"},"places":{"nom":"Places pour dormir","valeur":12},"etat":{"valeur":"undefined"}},"geometry":{"type":"Point","coordinates":[6.15355,44.2896]}},{"type":"Feature","id":3180,"properties":{"id":3180,"lien":"https://thurii.com/","nom":"Le Combalou","sym":" Residence","coord":{"alt":1100},"type":{"id":9,"valeur":"lodging","icon":"lodging"},"places":{"nom":"Places pour dormir","valeur":40},"etat":{"valeur":"undefined"}},"geometry":{"type":"Point","coordinates":[4.45543,45.2221]}},{"type":"Feature","id":3181,"properties":{"id":3181,"lien":"https://thurii.com/","nom":"Refuge de Mayères","sym":" Residence","coord":{"alt":1600},"type":{"id":9,"valeur":"lodging","icon":"lodging"},"places":{"nom":"Places pour dormir","valeur":50},"etat":{"valeur":"undefined"}},"geometry":{"type":"Point","coordinates":[6.58719,45.9501]}},{"type":"Feature","id":3182,"properties":{"id":3182,"lien":"https://thurii.com/","nom":"Refuge des Feneys","sym":" Residence","coord":{"alt":1530},"type":{"id":9,"valeur":"lodging","icon":"lodging"},"places":{"nom":"Places pour dormir","valeur":19},"etat":{"valeur":"undefined"}},"geometry":{"type":"Point","coordinates":[5.58476,45.1893]}},{"type":"Feature","id":3183,"properties":{"id":3183,"lien":"https://thurii.com/","nom":"Au Petit Vélan","sym":" Residence","coord":{"alt":1622},"type":{"id":9,"valeur":"lodging","icon":"lodging"},"places":{"nom":"Places pour dormir","valeur":32},"etat":{"valeur":"undefined"}},"geometry":{"type":"Point","coordinates":[7.20787,45.9502]}},{"type":"Feature","id":3184,"properties":{"id":3184,"lien":"https://thurii.com/","nom":"Cabane F.X.B. Panossiere","sym":" Residence","coord":{"alt":2641},"type":{"id":9,"valeur":"lodging","icon":"lodging"},"places":{"nom":"Places pour dormir","valeur":103},"etat":{"valeur":"undefined"}},"geometry":{"type":"Point","coordinates":[7.29975,45.9987]}},{"type":"Feature","id":3185,"properties":{"id":3185,"lien":"https://thurii.com/","nom":"Refuge de la Cime","sym":" Residence","coord":{"alt":1822},"type":{"id":9,"valeur":"lodging","icon":"lodging"},"places":{"nom":"Places pour dormir","valeur":23},"etat":{"valeur":"undefined"}},"geometry":{"type":"Point","coordinates":[6.80312,44.6441]}},{"type":"Feature","id":3186,"properties":{"id":3186,"lien":"https://thurii.com/","nom":"Refuge Quand Même","sym":" Residence","coord":{"alt":1071},"type":{"id":9,"valeur":"lodging","icon":"lodging"},"places":{"nom":"Places pour dormir","valeur":50},"etat":{"valeur":"undefined"}},"geometry":{"type":"Point","coordinates":[6.84875,47.8024]}},{"type":"Feature","id":3187,"properties":{"id":3187,"lien":"https://thurii.com/","nom":"Le lieraver","sym":" Residence","coord":{"alt":1454},"type":{"id":9,"valeur":"lodging","icon":"lodging"},"places":{"nom":"Places pour dormir","valeur":39},"etat":{"valeur":"undefined"}},"geometry":{"type":"Point","coordinates":[5.94209,44.6918]}},{"type":"Feature","id":3188,"properties":{"id":3188,"lien":"https://thurii.com/","nom":"Refuge Jeandel","sym":" Residence","coord":{"alt":1647},"type":{"id":9,"valeur":"lodging","icon":"lodging"},"places":{"nom":"Places pour dormir","valeur":19},"etat":{"valeur":"undefined"}},"geometry":{"type":"Point","coordinates":[-0.74935,42.9783]}},{"type":"Feature","id":3189,"properties":{"id":3189,"lien":"https://thurii.com/","nom":"Gite communal d Agnieres","sym":" Crossing","coord":{"alt":1250},"type":{"id":9,"valeur":"lodging","icon":"lodging"},"places":{"nom":"Places pour dormir","valeur":0},"etat":{"valeur":"undefined"}},"geometry":{"type":"Point","coordinates":[5.88138,44.6938]}},{"type":"Feature","id":3190,"properties":{"id":3190,"lien":"https://thurii.com/","nom":"Ferme-auberge Breitsouze","sym":" Residence","coord":{"alt":1254},"type":{"id":9,"valeur":"lodging","icon":"lodging"},"places":{"nom":"Places pour dormir","valeur":0},"etat":{"valeur":"undefined"}},"geometry":{"type":"Point","coordinates":[6.9959,48.0254]}},{"type":"Feature","id":3191,"properties":{"id":3191,"lien":"https://thurii.com/","nom":"Rifugio Fontana Mura","sym":" Residence","coord":{"alt":1726},"type":{"id":9,"valeur":"lodging","icon":"lodging"},"places":{"nom":"Places pour dormir","valeur":25},"etat":{"valeur":"undefined"}},"geometry":{"type":"Point","coordinates":[7.18744,45.0186]}},{"type":"Feature","id":3192,"properties":{"id":3192,"lien":"https://thurii.com/","nom":"Gîte d Angèle","sym":" Residence","coord":{"alt":480},"type":{"id":9,"valeur":"lodging","icon":"lodging"},"places":{"nom":"Places pour dormir","valeur":20},"etat":{"valeur":"undefined"}},"geometry":{"type":"Point","coordinates":[5.28757,44.4425]}},{"type":"Feature","id":3193,"properties":{"id":3193,"lien":"https://thurii.com/","nom":"Gite San Giuliano","sym":" Residence","coord":{"alt":1960},"type":{"id":9,"valeur":"lodging","icon":"lodging"},"places":{"nom":"Places pour dormir","valeur":22},"etat":{"valeur":"undefined"}},"geometry":{"type":"Point","coordinates":[10.7047,46.1449]}},{"type":"Feature","id":3194,"properties":{"id":3194,"lien":"https://thurii.com/","nom":"Cabane Perrenoud (CAS)","sym":" Residence","coord":{"alt":1419},"type":{"id":9,"valeur":"lodging","icon":"lodging"},"places":{"nom":"Places pour dormir","valeur":28},"etat":{"valeur":"undefined"}},"geometry":{"type":"Point","coordinates":[6.72383,46.9183]}},{"type":"Feature","id":3195,"properties":{"id":3195,"lien":"https://thurii.com/","nom":"La Dalue","sym":" Residence","coord":{"alt":1245},"type":{"id":9,"valeur":"lodging","icon":"lodging"},"places":{"nom":"Places pour dormir","valeur":30},"etat":{"valeur":"undefined"}},"geometry":{"type":"Point","coordinates":[5.89034,46.299]}},{"type":"Feature","id":3196,"properties":{"id":3196,"lien":"https://thurii.com/","nom":"La Maison du Montagnon","sym":" Residence","coord":{"alt":1090},"type":{"id":9,"valeur":"lodging","icon":"lodging"},"places":{"nom":"Places pour dormir","valeur":53},"etat":{"valeur":"undefined"}},"geometry":{"type":"Point","coordinates":[6.11353,46.6015]}},{"type":"Feature","id":3197,"properties":{"id":3197,"lien":"https://thurii.com/","nom":"Chalet de la Frasse","sym":" Residence","coord":{"alt":1293},"type":{"id":9,"valeur":"lodging","icon":"lodging"},"places":{"nom":"Places pour dormir","valeur":19},"etat":{"valeur":"undefined"}},"geometry":{"type":"Point","coordinates":[6.0312,46.4252]}},{"type":"Feature","id":3198,"properties":{"id":3198,"lien":"https://thurii.com/","nom":"Refuge des Prés d Haut","sym":" Residence","coord":{"alt":1276},"type":{"id":9,"valeur":"lodging","icon":"lodging"},"places":{"nom":"Places pour dormir","valeur":20},"etat":{"valeur":"undefined"}},"geometry":{"type":"Point","coordinates":[6.11442,46.6412]}},{"type":"Feature","id":3199,"properties":{"id":3199,"lien":"https://thurii.com/","nom":"Gîte de l Ivraie","sym":" Residence","coord":{"alt":1200},"type":{"id":9,"valeur":"lodging","icon":"lodging"},"places":{"nom":"Places pour dormir","valeur":18},"etat":{"valeur":"undefined"}},"geometry":{"type":"Point","coordinates":[5.84855,44.6395]}},{"type":"Feature","id":3200,"properties":{"id":3200,"lien":"https://thurii.com/","nom":"L Ancolie (Ferme du Commandant)","sym":" Crossing","coord":{"alt":1120},"type":{"id":9,"valeur":"lodging","icon":"lodging"},"places":{"nom":"Places pour dormir","valeur":22},"etat":{"valeur":"undefined"}},"geometry":{"type":"Point","coordinates":[6.05639,46.4705]}},{"type":"Feature","id":3201,"properties":{"id":3201,"lien":"https://thurii.com/","nom":"Refuge de Furfande","sym":" Residence","coord":{"alt":2291},"type":{"id":9,"valeur":"lodging","icon":"lodging"},"places":{"nom":"Places pour dormir","valeur":38},"etat":{"valeur":"undefined"}},"geometry":{"type":"Point","coordinates":[6.71206,44.7277]}},{"type":"Feature","id":3202,"properties":{"id":3202,"lien":"https://thurii.com/","nom":"Rifugio Tabaretta","sym":" Residence","coord":{"alt":2600},"type":{"id":9,"valeur":"lodging","icon":"lodging"},"places":{"nom":"Places pour dormir","valeur":40},"etat":{"valeur":"undefined"}},"geometry":{"type":"Point","coordinates":[10.5508,46.5301]}},{"type":"Feature","id":3203,"properties":{"id":3203,"lien":"https://thurii.com/","nom":"La Petite Echelle","sym":" Residence","coord":{"alt":1200},"type":{"id":9,"valeur":"lodging","icon":"lodging"},"places":{"nom":"Places pour dormir","valeur":20},"etat":{"valeur":"undefined"}},"geometry":{"type":"Point","coordinates":[6.33123,46.7109]}},{"type":"Feature","id":3204,"properties":{"id":3204,"lien":"https://thurii.com/","nom":"Le Grand Tétras","sym":" Residence","coord":{"alt":1050},"type":{"id":9,"valeur":"lodging","icon":"lodging"},"places":{"nom":"Places pour dormir","valeur":0},"etat":{"valeur":"undefined"}},"geometry":{"type":"Point","coordinates":[6.06644,46.4936]}},{"type":"Feature","id":3205,"properties":{"id":3205,"lien":"https://thurii.com/","nom":"Cabane de la Gym","sym":" Residence","coord":{"alt":1365},"type":{"id":9,"valeur":"lodging","icon":"lodging"},"places":{"nom":"Places pour dormir","valeur":30},"etat":{"valeur":"undefined"}},"geometry":{"type":"Point","coordinates":[6.35744,46.7197]}},{"type":"Feature","id":3206,"properties":{"id":3206,"lien":"https://thurii.com/","nom":"Refuge de l Abérouat","sym":" Residence","coord":{"alt":1450},"type":{"id":9,"valeur":"lodging","icon":"lodging"},"places":{"nom":"Places pour dormir","valeur":27},"etat":{"valeur":"undefined"}},"geometry":{"type":"Point","coordinates":[-0.665939,42.9503]}},{"type":"Feature","id":3207,"properties":{"id":3207,"lien":"https://thurii.com/","nom":"Gîte de la Ruche","sym":" Residence","coord":{"alt":1290},"type":{"id":9,"valeur":"lodging","icon":"lodging"},"places":{"nom":"Places pour dormir","valeur":15},"etat":{"valeur":"undefined"}},"geometry":{"type":"Point","coordinates":[5.92503,44.7216]}},{"type":"Feature","id":3208,"properties":{"id":3208,"lien":"https://thurii.com/","nom":"Le Rocher Rond","sym":" Residence","coord":{"alt":1392},"type":{"id":9,"valeur":"lodging","icon":"lodging"},"places":{"nom":"Places pour dormir","valeur":41},"etat":{"valeur":"undefined"}},"geometry":{"type":"Point","coordinates":[5.86442,44.6923]}},{"type":"Feature","id":3209,"properties":{"id":3209,"lien":"https://thurii.com/","nom":"Hôtel du Marchairuz","sym":" Residence","coord":{"alt":1446},"type":{"id":9,"valeur":"lodging","icon":"lodging"},"places":{"nom":"Places pour dormir","valeur":19},"etat":{"valeur":"undefined"}},"geometry":{"type":"Point","coordinates":[6.24993,46.5526]}},{"type":"Feature","id":3210,"properties":{"id":3210,"lien":"https://thurii.com/","nom":"Cabane du Levant (SCLL)","sym":" Residence","coord":{"alt":1281},"type":{"id":9,"valeur":"lodging","icon":"lodging"},"places":{"nom":"Places pour dormir","valeur":35},"etat":{"valeur":"undefined"}},"geometry":{"type":"Point","coordinates":[6.2513,46.6581]}},{"type":"Feature","id":3211,"properties":{"id":3211,"lien":"https://thurii.com/","nom":"Gîte d étape St Disdier","sym":" Residence","coord":{"alt":1030},"type":{"id":9,"valeur":"lodging","icon":"lodging"},"places":{"nom":"Places pour dormir","valeur":15},"etat":{"valeur":"undefined"}},"geometry":{"type":"Point","coordinates":[5.89628,44.7352]}},{"type":"Feature","id":3212,"properties":{"id":3212,"lien":"https://thurii.com/","nom":"Chalet-refuge du Gros Morond","sym":" Residence","coord":{"alt":1303},"type":{"id":9,"valeur":"lodging","icon":"lodging"},"places":{"nom":"Places pour dormir","valeur":30},"etat":{"valeur":"undefined"}},"geometry":{"type":"Point","coordinates":[6.35212,46.7472]}},{"type":"Feature","id":3213,"properties":{"id":3213,"lien":"https://thurii.com/","nom":"Cabane du Mont d Or (CAS)","sym":" Residence","coord":{"alt":1370},"type":{"id":9,"valeur":"lodging","icon":"lodging"},"places":{"nom":"Places pour dormir","valeur":25},"etat":{"valeur":"undefined"}},"geometry":{"type":"Point","coordinates":[6.36051,46.7227]}},{"type":"Feature","id":3214,"properties":{"id":3214,"lien":"https://thurii.com/","nom":"Gîte Les Granges Fouillouse","sym":" Residence","coord":{"alt":1900},"type":{"id":9,"valeur":"lodging","icon":"lodging"},"places":{"nom":"Places pour dormir","valeur":55},"etat":{"valeur":"undefined"}},"geometry":{"type":"Point","coordinates":[6.79847,44.5252]}},{"type":"Feature","id":3215,"properties":{"id":3215,"lien":"https://thurii.com/","nom":"Refuge du Goléon","sym":" Residence","coord":{"alt":2464},"type":{"id":9,"valeur":"lodging","icon":"lodging"},"places":{"nom":"Places pour dormir","valeur":19},"etat":{"valeur":"undefined"}},"geometry":{"type":"Point","coordinates":[6.35664,45.0813]}},{"type":"Feature","id":3216,"properties":{"id":3216,"lien":"https://thurii.com/","nom":"Chalet-Refuge CAF de Gourette","sym":" Residence","coord":{"alt":1350},"type":{"id":9,"valeur":"lodging","icon":"lodging"},"places":{"nom":"Places pour dormir","valeur":32},"etat":{"valeur":"undefined"}},"geometry":{"type":"Point","coordinates":[-0.33404,42.9595]}},{"type":"Feature","id":3217,"properties":{"id":3217,"lien":"https://thurii.com/","nom":"Figuier","sym":" Residence","coord":{"alt":350},"type":{"id":9,"valeur":"lodging","icon":"lodging"},"places":{"nom":"Places pour dormir","valeur":20},"etat":{"valeur":"undefined"}},"geometry":{"type":"Point","coordinates":[5.67425,43.5258]}},{"type":"Feature","id":3218,"properties":{"id":3218,"lien":"https://thurii.com/","nom":"Gîte d étape des crêtes de Lure","sym":" Residence","coord":{"alt":1500},"type":{"id":9,"valeur":"lodging","icon":"lodging"},"places":{"nom":"Places pour dormir","valeur":12},"etat":{"valeur":"undefined"}},"geometry":{"type":"Point","coordinates":[5.7814,44.1129]}},{"type":"Feature","id":3219,"properties":{"id":3219,"lien":"https://thurii.com/","nom":"Le mas de l oncle Joseph","sym":" Residence","coord":{"alt":942},"type":{"id":9,"valeur":"lodging","icon":"lodging"},"places":{"nom":"Places pour dormir","valeur":8},"etat":{"valeur":"undefined"}},"geometry":{"type":"Point","coordinates":[3.85943,44.7229]}},{"type":"Feature","id":3220,"properties":{"id":3220,"lien":"https://thurii.com/","nom":"Gîte d étape de Saint Hubert","sym":" Residence","coord":{"alt":850},"type":{"id":9,"valeur":"lodging","icon":"lodging"},"places":{"nom":"Places pour dormir","valeur":20},"etat":{"valeur":"undefined"}},"geometry":{"type":"Point","coordinates":[5.32151,44.0248]}},{"type":"Feature","id":3221,"properties":{"id":3221,"lien":"https://thurii.com/","nom":"Refuge de la Grange de la tour","sym":" Residence","coord":{"alt":1170},"type":{"id":9,"valeur":"lodging","icon":"lodging"},"places":{"nom":"Places pour dormir","valeur":15},"etat":{"valeur":"undefined"}},"geometry":{"type":"Point","coordinates":[5.77908,45.9491]}},{"type":"Feature","id":3222,"properties":{"id":3222,"lien":"https://thurii.com/","nom":"Rifugio Guide di Frachey","sym":" Residence","coord":{"alt":2052},"type":{"id":9,"valeur":"lodging","icon":"lodging"},"places":{"nom":"Places pour dormir","valeur":40},"etat":{"valeur":"undefined"}},"geometry":{"type":"Point","coordinates":[7.73943,45.8659]}},{"type":"Feature","id":3223,"properties":{"id":3223,"lien":"https://thurii.com/","nom":"Chalet-refuge des Mouterres","sym":" Residence","coord":{"alt":2250},"type":{"id":9,"valeur":"lodging","icon":"lodging"},"places":{"nom":"Places pour dormir","valeur":25},"etat":{"valeur":"undefined"}},"geometry":{"type":"Point","coordinates":[6.21292,45.0553]}},{"type":"Feature","id":3224,"properties":{"id":3224,"lien":"https://thurii.com/","nom":"Gîte d’étape municipal du Pont de Montvert","sym":" Residence","coord":{"alt":920},"type":{"id":9,"valeur":"lodging","icon":"lodging"},"places":{"nom":"Places pour dormir","valeur":35},"etat":{"valeur":"undefined"}},"geometry":{"type":"Point","coordinates":[3.74638,44.3655]}},{"type":"Feature","id":3225,"properties":{"id":3225,"lien":"https://thurii.com/","nom":"Le Gévaudan (La Bastide Puylaurent)","sym":" Crossing","coord":{"alt":1030},"type":{"id":9,"valeur":"lodging","icon":"lodging"},"places":{"nom":"Places pour dormir","valeur":20},"etat":{"valeur":"undefined"}},"geometry":{"type":"Point","coordinates":[3.90537,44.5936]}},{"type":"Feature","id":3226,"properties":{"id":3226,"lien":"https://thurii.com/","nom":"Chalet-refuge du Fay","sym":" Residence","coord":{"alt":2260},"type":{"id":9,"valeur":"lodging","icon":"lodging"},"places":{"nom":"Places pour dormir","valeur":24},"etat":{"valeur":"undefined"}},"geometry":{"type":"Point","coordinates":[6.21358,45.0576]}},{"type":"Feature","id":3227,"properties":{"id":3227,"lien":"https://thurii.com/","nom":"Refuge de Sarenne","sym":" Crossing","coord":{"alt":2000},"type":{"id":9,"valeur":"lodging","icon":"lodging"},"places":{"nom":"Places pour dormir","valeur":0},"etat":{"valeur":"undefined"}},"geometry":{"type":"Point","coordinates":[6.14776,45.0879]}},{"type":"Feature","id":3228,"properties":{"id":3228,"lien":"https://thurii.com/","nom":"Refuge Gabizos","sym":" Residence","coord":{"alt":1219},"type":{"id":9,"valeur":"lodging","icon":"lodging"},"places":{"nom":"Places pour dormir","valeur":12},"etat":{"valeur":"undefined"}},"geometry":{"type":"Point","coordinates":[-0.242176,42.9562]}},{"type":"Feature","id":3229,"properties":{"id":3229,"lien":"https://thurii.com/","nom":"Chalet de Pailla","sym":" Residence","coord":{"alt":1750},"type":{"id":9,"valeur":"lodging","icon":"lodging"},"places":{"nom":"Places pour dormir","valeur":38},"etat":{"valeur":"undefined"}},"geometry":{"type":"Point","coordinates":[0.000445247,42.7197]}},{"type":"Feature","id":3230,"properties":{"id":3230,"lien":"https://thurii.com/","nom":"Refuge d Ilhéou","sym":" Residence","coord":{"alt":1988},"type":{"id":9,"valeur":"lodging","icon":"lodging"},"places":{"nom":"Places pour dormir","valeur":22},"etat":{"valeur":"undefined"}},"geometry":{"type":"Point","coordinates":[-0.17352,42.8662]}},{"type":"Feature","id":3231,"properties":{"id":3231,"lien":"https://thurii.com/","nom":"Maison de Zachée, hôtellerie de l Abbaye Notre Dame des Neiges","sym":" Residence","coord":{"alt":1080},"type":{"id":9,"valeur":"lodging","icon":"lodging"},"places":{"nom":"Places pour dormir","valeur":25},"etat":{"valeur":"undefined"}},"geometry":{"type":"Point","coordinates":[3.93641,44.602]}},{"type":"Feature","id":3232,"properties":{"id":3232,"lien":"https://thurii.com/","nom":"Gîte de la Villette","sym":" Residence","coord":{"alt":1500},"type":{"id":9,"valeur":"lodging","icon":"lodging"},"places":{"nom":"Places pour dormir","valeur":30},"etat":{"valeur":"undefined"}},"geometry":{"type":"Point","coordinates":[6.33536,45.2031]}},{"type":"Feature","id":3233,"properties":{"id":3233,"lien":"https://thurii.com/","nom":"Refuge de la Fare","sym":" Residence","coord":{"alt":2280},"type":{"id":9,"valeur":"lodging","icon":"lodging"},"places":{"nom":"Places pour dormir","valeur":14},"etat":{"valeur":"undefined"}},"geometry":{"type":"Point","coordinates":[6.10703,45.1417]}},{"type":"Feature","id":3234,"properties":{"id":3234,"lien":"https://thurii.com/","nom":"Refuge de la Soula","sym":" Residence","coord":{"alt":1690},"type":{"id":9,"valeur":"lodging","icon":"lodging"},"places":{"nom":"Places pour dormir","valeur":40},"etat":{"valeur":"undefined"}},"geometry":{"type":"Point","coordinates":[0.419894,42.7227]}},{"type":"Feature","id":3235,"properties":{"id":3235,"lien":"https://thurii.com/","nom":"Maison forestière de Falletans","sym":" Crossing","coord":{"alt":242},"type":{"id":9,"valeur":"lodging","icon":"lodging"},"places":{"nom":"Places pour dormir","valeur":0},"etat":{"valeur":"undefined"}},"geometry":{"type":"Point","coordinates":[5.58415,47.0614]}},{"type":"Feature","id":3236,"properties":{"id":3236,"lien":"https://thurii.com/","nom":"Chalet la Grange de Holle","sym":" Residence","coord":{"alt":1500},"type":{"id":9,"valeur":"lodging","icon":"lodging"},"places":{"nom":"Places pour dormir","valeur":50},"etat":{"valeur":"undefined"}},"geometry":{"type":"Point","coordinates":[-0.0227,42.7394]}},{"type":"Feature","id":3237,"properties":{"id":3237,"lien":"https://thurii.com/","nom":"Refuge de la Pare","sym":" Residence","coord":{"alt":1832},"type":{"id":9,"valeur":"lodging","icon":"lodging"},"places":{"nom":"Places pour dormir","valeur":17},"etat":{"valeur":"undefined"}},"geometry":{"type":"Point","coordinates":[6.62197,44.4291]}},{"type":"Feature","id":3238,"properties":{"id":3238,"lien":"https://thurii.com/","nom":"Refuge-Hôtel de Bayasse","sym":" Residence","coord":{"alt":1800},"type":{"id":9,"valeur":"lodging","icon":"lodging"},"places":{"nom":"Places pour dormir","valeur":36},"etat":{"valeur":"undefined"}},"geometry":{"type":"Point","coordinates":[6.742,44.3115]}},{"type":"Feature","id":3239,"properties":{"id":3239,"lien":"https://thurii.com/","nom":"Gîte du Volcan","sym":" Residence","coord":{"alt":2270},"type":{"id":9,"valeur":"lodging","icon":"lodging"},"places":{"nom":"Places pour dormir","valeur":57},"etat":{"valeur":"undefined"}},"geometry":{"type":"Point","coordinates":[55.6872,-21.2178]}},{"type":"Feature","id":3240,"properties":{"id":3240,"lien":"https://thurii.com/","nom":"Berghaus Bäregg","sym":" Residence","coord":{"alt":1772},"type":{"id":9,"valeur":"lodging","icon":"lodging"},"places":{"nom":"Places pour dormir","valeur":28},"etat":{"valeur":"undefined"}},"geometry":{"type":"Point","coordinates":[8.05997,46.6004]}},{"type":"Feature","id":3241,"properties":{"id":3241,"lien":"https://thurii.com/","nom":"Wiwannihütte","sym":" Residence","coord":{"alt":2470},"type":{"id":9,"valeur":"lodging","icon":"lodging"},"places":{"nom":"Places pour dormir","valeur":28},"etat":{"valeur":"undefined"}},"geometry":{"type":"Point","coordinates":[7.86184,46.3445]}},{"type":"Feature","id":3242,"properties":{"id":3242,"lien":"https://thurii.com/","nom":"Gite d étape de la Pierre","sym":" Residence","coord":{"alt":1100},"type":{"id":9,"valeur":"lodging","icon":"lodging"},"places":{"nom":"Places pour dormir","valeur":15},"etat":{"valeur":"undefined"}},"geometry":{"type":"Point","coordinates":[6.23431,45.2925]}},{"type":"Feature","id":3243,"properties":{"id":3243,"lien":"https://thurii.com/","nom":"Ferme-auberge Kahlenwasen","sym":" Residence","coord":{"alt":1100},"type":{"id":9,"valeur":"lodging","icon":"lodging"},"places":{"nom":"Places pour dormir","valeur":0},"etat":{"valeur":"undefined"}},"geometry":{"type":"Point","coordinates":[7.124,47.989]}},{"type":"Feature","id":3244,"properties":{"id":3244,"lien":"https://thurii.com/","nom":"Ski Club Guebwiller","sym":" Residence","coord":{"alt":1250},"type":{"id":9,"valeur":"lodging","icon":"lodging"},"places":{"nom":"Places pour dormir","valeur":32},"etat":{"valeur":"undefined"}},"geometry":{"type":"Point","coordinates":[7.10418,47.9116]}},{"type":"Feature","id":3245,"properties":{"id":3245,"lien":"https://thurii.com/","nom":"Refuge auberge de la Tinfronce","sym":" Crossing","coord":{"alt":1115},"type":{"id":9,"valeur":"lodging","icon":"lodging"},"places":{"nom":"Places pour dormir","valeur":27},"etat":{"valeur":"undefined"}},"geometry":{"type":"Point","coordinates":[7.088,48.1389]}},{"type":"Feature","id":3246,"properties":{"id":3246,"lien":"https://thurii.com/","nom":"Auberge du Chanet","sym":" Residence","coord":{"alt":950},"type":{"id":9,"valeur":"lodging","icon":"lodging"},"places":{"nom":"Places pour dormir","valeur":15},"etat":{"valeur":"undefined"}},"geometry":{"type":"Point","coordinates":[3.46082,44.2645]}},{"type":"Feature","id":3247,"properties":{"id":3247,"lien":"https://thurii.com/","nom":"Refuge du Boedelen","sym":" Residence","coord":{"alt":845},"type":{"id":9,"valeur":"lodging","icon":"lodging"},"places":{"nom":"Places pour dormir","valeur":37},"etat":{"valeur":"undefined"}},"geometry":{"type":"Point","coordinates":[6.85038,47.8168]}},{"type":"Feature","id":3248,"properties":{"id":3248,"lien":"https://thurii.com/","nom":"Refuge du Schnepfenried","sym":" Residence","coord":{"alt":1045},"type":{"id":9,"valeur":"lodging","icon":"lodging"},"places":{"nom":"Places pour dormir","valeur":45},"etat":{"valeur":"undefined"}},"geometry":{"type":"Point","coordinates":[7.04697,47.9892]}},{"type":"Feature","id":3249,"properties":{"id":3249,"lien":"https://thurii.com/","nom":"Restaurant du Lac des Chavonnes","sym":" Residence","coord":{"alt":1695},"type":{"id":9,"valeur":"lodging","icon":"lodging"},"places":{"nom":"Places pour dormir","valeur":12},"etat":{"valeur":"undefined"}},"geometry":{"type":"Point","coordinates":[7.08326,46.3325]}},{"type":"Feature","id":3250,"properties":{"id":3250,"lien":"https://thurii.com/","nom":"Refuge de la Waldmatt","sym":" Residence","coord":{"alt":1100},"type":{"id":9,"valeur":"lodging","icon":"lodging"},"places":{"nom":"Places pour dormir","valeur":30},"etat":{"valeur":"undefined"}},"geometry":{"type":"Point","coordinates":[7.0199,47.8225]}},{"type":"Feature","id":3251,"properties":{"id":3251,"lien":"https://thurii.com/","nom":"Auberge du Geisbach","sym":" Residence","coord":{"alt":640},"type":{"id":9,"valeur":"lodging","icon":"lodging"},"places":{"nom":"Places pour dormir","valeur":6},"etat":{"valeur":"undefined"}},"geometry":{"type":"Point","coordinates":[7.1189,48.0204]}},{"type":"Feature","id":3252,"properties":{"id":3252,"lien":"https://thurii.com/","nom":"Buvette des Petits Lacs","sym":" Residence","coord":{"alt":1920},"type":{"id":9,"valeur":"lodging","icon":"lodging"},"places":{"nom":"Places pour dormir","valeur":20},"etat":{"valeur":"undefined"}},"geometry":{"type":"Point","coordinates":[7.11626,46.3853]}},{"type":"Feature","id":3253,"properties":{"id":3253,"lien":"https://thurii.com/","nom":"Chalet Neuf","sym":" Residence","coord":{"alt":1865},"type":{"id":9,"valeur":"lodging","icon":"lodging"},"places":{"nom":"Places pour dormir","valeur":32},"etat":{"valeur":"undefined"}},"geometry":{"type":"Point","coordinates":[7.0685,46.182]}},{"type":"Feature","id":3254,"properties":{"id":3254,"lien":"https://thurii.com/","nom":"Ferme-auberge du Thannerhubel","sym":" Residence","coord":{"alt":1050},"type":{"id":9,"valeur":"lodging","icon":"lodging"},"places":{"nom":"Places pour dormir","valeur":20},"etat":{"valeur":"undefined"}},"geometry":{"type":"Point","coordinates":[7.03076,47.8217]}},{"type":"Feature","id":3255,"properties":{"id":3255,"lien":"https://thurii.com/","nom":"Ferme-Auberge du Gresson","sym":" Residence","coord":{"alt":950},"type":{"id":9,"valeur":"lodging","icon":"lodging"},"places":{"nom":"Places pour dormir","valeur":47},"etat":{"valeur":"undefined"}},"geometry":{"type":"Point","coordinates":[6.90097,47.8242]}},{"type":"Feature","id":3256,"properties":{"id":3256,"lien":"https://thurii.com/","nom":"Refuge du Spitzenberg","sym":" Residence","coord":{"alt":673},"type":{"id":9,"valeur":"lodging","icon":"lodging"},"places":{"nom":"Places pour dormir","valeur":44},"etat":{"valeur":"undefined"}},"geometry":{"type":"Point","coordinates":[7.29325,48.243]}},{"type":"Feature","id":3257,"properties":{"id":3257,"lien":"https://thurii.com/","nom":"Chalet du Treh","sym":" Residence","coord":{"alt":1050},"type":{"id":9,"valeur":"lodging","icon":"lodging"},"places":{"nom":"Places pour dormir","valeur":40},"etat":{"valeur":"undefined"}},"geometry":{"type":"Point","coordinates":[7.00908,47.9226]}},{"type":"Feature","id":3258,"properties":{"id":3258,"lien":"https://thurii.com/","nom":"Gîtes-Bivouac des Gabriels","sym":" Residence","coord":{"alt":1050},"type":{"id":9,"valeur":"lodging","icon":"lodging"},"places":{"nom":"Places pour dormir","valeur":6},"etat":{"valeur":"undefined"}},"geometry":{"type":"Point","coordinates":[5.38502,44.9796]}},{"type":"Feature","id":3259,"properties":{"id":3259,"lien":"https://thurii.com/","nom":"Cabane des Martinaux","sym":" Residence","coord":{"alt":1672},"type":{"id":9,"valeur":"lodging","icon":"lodging"},"places":{"nom":"Places pour dormir","valeur":30},"etat":{"valeur":"undefined"}},"geometry":{"type":"Point","coordinates":[7.0479,46.2147]}},{"type":"Feature","id":3260,"properties":{"id":3260,"lien":"https://thurii.com/","nom":"Refuge du Ski Club Sportif Mulhouse","sym":" Residence","coord":{"alt":1104},"type":{"id":9,"valeur":"lodging","icon":"lodging"},"places":{"nom":"Places pour dormir","valeur":43},"etat":{"valeur":"undefined"}},"geometry":{"type":"Point","coordinates":[7.0142,47.8232]}},{"type":"Feature","id":3261,"properties":{"id":3261,"lien":"https://thurii.com/","nom":"Refuge du Hahnenbrunnen","sym":" Residence","coord":{"alt":1200},"type":{"id":9,"valeur":"lodging","icon":"lodging"},"places":{"nom":"Places pour dormir","valeur":32},"etat":{"valeur":"undefined"}},"geometry":{"type":"Point","coordinates":[7.01922,47.9523]}},{"type":"Feature","id":3262,"properties":{"id":3262,"lien":"https://thurii.com/","nom":"I Re Magi","sym":" Residence","coord":{"alt":1780},"type":{"id":9,"valeur":"lodging","icon":"lodging"},"places":{"nom":"Places pour dormir","valeur":39},"etat":{"valeur":"undefined"}},"geometry":{"type":"Point","coordinates":[6.62267,45.0707]}},{"type":"Feature","id":3263,"properties":{"id":3263,"lien":"https://thurii.com/","nom":"Refuge de Laval","sym":" Residence","coord":{"alt":2010},"type":{"id":9,"valeur":"lodging","icon":"lodging"},"places":{"nom":"Places pour dormir","valeur":23},"etat":{"valeur":"undefined"}},"geometry":{"type":"Point","coordinates":[6.52988,45.0575]}},{"type":"Feature","id":3264,"properties":{"id":3264,"lien":"https://thurii.com/","nom":"Refuge du Fioux","sym":" Residence","coord":{"alt":1500},"type":{"id":9,"valeur":"lodging","icon":"lodging"},"places":{"nom":"Places pour dormir","valeur":24},"etat":{"valeur":"undefined"}},"geometry":{"type":"Point","coordinates":[6.76071,45.8719]}},{"type":"Feature","id":3265,"properties":{"id":3265,"lien":"https://thurii.com/","nom":"Ferme-auberge du Drumont","sym":" Residence","coord":{"alt":1200},"type":{"id":9,"valeur":"lodging","icon":"lodging"},"places":{"nom":"Places pour dormir","valeur":30},"etat":{"valeur":"undefined"}},"geometry":{"type":"Point","coordinates":[6.9144,47.9021]}},{"type":"Feature","id":3266,"properties":{"id":3266,"lien":"https://thurii.com/","nom":"La Schellimatt","sym":" Residence","coord":{"alt":1100},"type":{"id":9,"valeur":"lodging","icon":"lodging"},"places":{"nom":"Places pour dormir","valeur":27},"etat":{"valeur":"undefined"}},"geometry":{"type":"Point","coordinates":[7.13501,47.9732]}},{"type":"Feature","id":3267,"properties":{"id":3267,"lien":"https://thurii.com/","nom":"Le Belvédère de Sainte-Anne","sym":" Residence","coord":{"alt":1700},"type":{"id":9,"valeur":"lodging","icon":"lodging"},"places":{"nom":"Places pour dormir","valeur":16},"etat":{"valeur":"undefined"}},"geometry":{"type":"Point","coordinates":[6.72444,44.4717]}},{"type":"Feature","id":3268,"properties":{"id":3268,"lien":"https://thurii.com/","nom":"Restaurant du lac Lioson","sym":" Residence","coord":{"alt":1850},"type":{"id":9,"valeur":"lodging","icon":"lodging"},"places":{"nom":"Places pour dormir","valeur":48},"etat":{"valeur":"undefined"}},"geometry":{"type":"Point","coordinates":[7.12766,46.3877]}},{"type":"Feature","id":3269,"properties":{"id":3269,"lien":"https://thurii.com/","nom":"Gîte de Lodze","sym":" Residence","coord":{"alt":1976},"type":{"id":9,"valeur":"lodging","icon":"lodging"},"places":{"nom":"Places pour dormir","valeur":22},"etat":{"valeur":"undefined"}},"geometry":{"type":"Point","coordinates":[7.25967,46.2596]}},{"type":"Feature","id":3270,"properties":{"id":3270,"lien":"https://thurii.com/","nom":"Refuge Levi Molinari","sym":" Residence","coord":{"alt":1849},"type":{"id":9,"valeur":"lodging","icon":"lodging"},"places":{"nom":"Places pour dormir","valeur":46},"etat":{"valeur":"undefined"}},"geometry":{"type":"Point","coordinates":[6.89542,45.1149]}},{"type":"Feature","id":3271,"properties":{"id":3271,"lien":"https://thurii.com/","nom":"Refuge du Lautaret","sym":" Residence","coord":{"alt":1980},"type":{"id":9,"valeur":"lodging","icon":"lodging"},"places":{"nom":"Places pour dormir","valeur":42},"etat":{"valeur":"undefined"}},"geometry":{"type":"Point","coordinates":[6.41934,45.0417]}},{"type":"Feature","id":3272,"properties":{"id":3272,"lien":"https://thurii.com/","nom":"La Guienette","sym":" Residence","coord":{"alt":1250},"type":{"id":9,"valeur":"lodging","icon":"lodging"},"places":{"nom":"Places pour dormir","valeur":24},"etat":{"valeur":"undefined"}},"geometry":{"type":"Point","coordinates":[5.90712,46.2955]}},{"type":"Feature","id":3273,"properties":{"id":3273,"lien":"https://thurii.com/","nom":"Le Hameau de La Fage","sym":" Residence","coord":{"alt":800},"type":{"id":9,"valeur":"lodging","icon":"lodging"},"places":{"nom":"Places pour dormir","valeur":25},"etat":{"valeur":"undefined"}},"geometry":{"type":"Point","coordinates":[3.00818,43.6102]}},{"type":"Feature","id":3274,"properties":{"id":3274,"lien":"https://thurii.com/","nom":"Refuge de La Tour d Anzeindaz","sym":" Residence","coord":{"alt":1880},"type":{"id":9,"valeur":"lodging","icon":"lodging"},"places":{"nom":"Places pour dormir","valeur":86},"etat":{"valeur":"undefined"}},"geometry":{"type":"Point","coordinates":[7.16049,46.2895]}},{"type":"Feature","id":3275,"properties":{"id":3275,"lien":"https://thurii.com/","nom":"Chalet AAVM","sym":" Residence","coord":{"alt":1170},"type":{"id":9,"valeur":"lodging","icon":"lodging"},"places":{"nom":"Places pour dormir","valeur":0},"etat":{"valeur":"undefined"}},"geometry":{"type":"Point","coordinates":[7.01991,47.9243]}},{"type":"Feature","id":3276,"properties":{"id":3276,"lien":"https://thurii.com/","nom":"L Etang du Devin","sym":" Residence","coord":{"alt":950},"type":{"id":9,"valeur":"lodging","icon":"lodging"},"places":{"nom":"Places pour dormir","valeur":50},"etat":{"valeur":"undefined"}},"geometry":{"type":"Point","coordinates":[7.1271,48.1616]}},{"type":"Feature","id":3277,"properties":{"id":3277,"lien":"https://thurii.com/","nom":"Refuge l Espace","sym":" Residence","coord":{"alt":2860},"type":{"id":9,"valeur":"lodging","icon":"lodging"},"places":{"nom":"Places pour dormir","valeur":0},"etat":{"valeur":"undefined"}},"geometry":{"type":"Point","coordinates":[7.22392,46.3099]}},{"type":"Feature","id":3278,"properties":{"id":3278,"lien":"https://thurii.com/","nom":"Refuge de la Balme","sym":" Residence","coord":{"alt":1706},"type":{"id":9,"valeur":"lodging","icon":"lodging"},"places":{"nom":"Places pour dormir","valeur":50},"etat":{"valeur":"undefined"}},"geometry":{"type":"Point","coordinates":[6.71111,45.7575]}},{"type":"Feature","id":3279,"properties":{"id":3279,"lien":"https://thurii.com/","nom":"Cabane de Prarochet","sym":" Residence","coord":{"alt":2555},"type":{"id":9,"valeur":"lodging","icon":"lodging"},"places":{"nom":"Places pour dormir","valeur":44},"etat":{"valeur":"undefined"}},"geometry":{"type":"Point","coordinates":[7.24741,46.3145]}},{"type":"Feature","id":3280,"properties":{"id":3280,"lien":"https://thurii.com/","nom":"Refuge Giacomini","sym":" Residence","coord":{"alt":1890},"type":{"id":9,"valeur":"lodging","icon":"lodging"},"places":{"nom":"Places pour dormir","valeur":56},"etat":{"valeur":"undefined"}},"geometry":{"type":"Point","coordinates":[7.16205,46.2882]}},{"type":"Feature","id":3281,"properties":{"id":3281,"lien":"https://thurii.com/","nom":"Gîte du Grenier de Cheville","sym":" Crossing","coord":{"alt":1744},"type":{"id":9,"valeur":"lodging","icon":"lodging"},"places":{"nom":"Places pour dormir","valeur":12},"etat":{"valeur":"undefined"}},"geometry":{"type":"Point","coordinates":[7.19831,46.284]}},{"type":"Feature","id":3282,"properties":{"id":3282,"lien":"https://thurii.com/","nom":"Refuge des Hauts Plateaux","sym":" Residence","coord":{"alt":1120},"type":{"id":9,"valeur":"lodging","icon":"lodging"},"places":{"nom":"Places pour dormir","valeur":17},"etat":{"valeur":"undefined"}},"geometry":{"type":"Point","coordinates":[5.5172,45.0237]}},{"type":"Feature","id":3283,"properties":{"id":3283,"lien":"https://thurii.com/","nom":"Refuge du Lindion","sym":" Residence","coord":{"alt":1123},"type":{"id":9,"valeur":"lodging","icon":"lodging"},"places":{"nom":"Places pour dormir","valeur":30},"etat":{"valeur":"undefined"}},"geometry":{"type":"Point","coordinates":[6.2743,45.8832]}},{"type":"Feature","id":3284,"properties":{"id":3284,"lien":"https://thurii.com/","nom":"La Sarouche","sym":" Residence","coord":{"alt":1569},"type":{"id":9,"valeur":"lodging","icon":"lodging"},"places":{"nom":"Places pour dormir","valeur":16},"etat":{"valeur":"undefined"}},"geometry":{"type":"Point","coordinates":[7.13371,46.4493]}},{"type":"Feature","id":3285,"properties":{"id":3285,"lien":"https://thurii.com/","nom":"Cabane des Monts Chevreuils","sym":" Residence","coord":{"alt":1660},"type":{"id":9,"valeur":"lodging","icon":"lodging"},"places":{"nom":"Places pour dormir","valeur":30},"etat":{"valeur":"undefined"}},"geometry":{"type":"Point","coordinates":[7.08606,46.4375]}},{"type":"Feature","id":3286,"properties":{"id":3286,"lien":"https://thurii.com/","nom":"Refuge du Chardonnet","sym":" Residence","coord":{"alt":2223},"type":{"id":9,"valeur":"lodging","icon":"lodging"},"places":{"nom":"Places pour dormir","valeur":39},"etat":{"valeur":"undefined"}},"geometry":{"type":"Point","coordinates":[6.53189,45.0257]}},{"type":"Feature","id":3287,"properties":{"id":3287,"lien":"https://thurii.com/","nom":"Restaurant des Chaux","sym":" Residence","coord":{"alt":1754},"type":{"id":9,"valeur":"lodging","icon":"lodging"},"places":{"nom":"Places pour dormir","valeur":21},"etat":{"valeur":"undefined"}},"geometry":{"type":"Point","coordinates":[7.103,46.2958]}},{"type":"Feature","id":3288,"properties":{"id":3288,"lien":"https://thurii.com/","nom":"Refuge de Taveyanne","sym":" Residence","coord":{"alt":1647},"type":{"id":9,"valeur":"lodging","icon":"lodging"},"places":{"nom":"Places pour dormir","valeur":5},"etat":{"valeur":"undefined"}},"geometry":{"type":"Point","coordinates":[7.12251,46.304]}},{"type":"Feature","id":3289,"properties":{"id":3289,"lien":"https://thurii.com/","nom":"Refuge du Lac de Derborence","sym":" Residence","coord":{"alt":1462},"type":{"id":9,"valeur":"lodging","icon":"lodging"},"places":{"nom":"Places pour dormir","valeur":36},"etat":{"valeur":"undefined"}},"geometry":{"type":"Point","coordinates":[7.21465,46.2799]}},{"type":"Feature","id":3290,"properties":{"id":3290,"lien":"https://thurii.com/","nom":"Refuge la Tsamou","sym":" Residence","coord":{"alt":2060},"type":{"id":9,"valeur":"lodging","icon":"lodging"},"places":{"nom":"Places pour dormir","valeur":35},"etat":{"valeur":"undefined"}},"geometry":{"type":"Point","coordinates":[6.81508,45.207]}},{"type":"Feature","id":3291,"properties":{"id":3291,"lien":"https://thurii.com/","nom":"Refuge de Solalex","sym":" Residence","coord":{"alt":1460},"type":{"id":9,"valeur":"lodging","icon":"lodging"},"places":{"nom":"Places pour dormir","valeur":26},"etat":{"valeur":"undefined"}},"geometry":{"type":"Point","coordinates":[7.13733,46.2883]}},{"type":"Feature","id":3292,"properties":{"id":3292,"lien":"https://thurii.com/","nom":"Refuge de Bramanette","sym":" Residence","coord":{"alt":2080},"type":{"id":9,"valeur":"lodging","icon":"lodging"},"places":{"nom":"Places pour dormir","valeur":17},"etat":{"valeur":"undefined"}},"geometry":{"type":"Point","coordinates":[6.78924,45.2028]}},{"type":"Feature","id":3293,"properties":{"id":3293,"lien":"https://thurii.com/","nom":"Chalet refuge les Glaciers","sym":" Residence","coord":{"alt":1220},"type":{"id":9,"valeur":"lodging","icon":"lodging"},"places":{"nom":"Places pour dormir","valeur":29},"etat":{"valeur":"undefined"}},"geometry":{"type":"Point","coordinates":[6.77535,45.224]}},{"type":"Feature","id":3294,"properties":{"id":3294,"lien":"https://thurii.com/","nom":"Relais de Prinsuéjols","sym":" Residence","coord":{"alt":1234},"type":{"id":9,"valeur":"lodging","icon":"lodging"},"places":{"nom":"Places pour dormir","valeur":42},"etat":{"valeur":"undefined"}},"geometry":{"type":"Point","coordinates":[3.16796,44.6741]}},{"type":"Feature","id":3295,"properties":{"id":3295,"lien":"https://thurii.com/","nom":"Refuge des Marches","sym":" Residence","coord":{"alt":2230},"type":{"id":9,"valeur":"lodging","icon":"lodging"},"places":{"nom":"Places pour dormir","valeur":23},"etat":{"valeur":"undefined"}},"geometry":{"type":"Point","coordinates":[6.56551,45.1573]}},{"type":"Feature","id":3296,"properties":{"id":3296,"lien":"https://thurii.com/","nom":"Refuge de Gabardito","sym":" Residence","coord":{"alt":1360},"type":{"id":9,"valeur":"lodging","icon":"lodging"},"places":{"nom":"Places pour dormir","valeur":45},"etat":{"valeur":"undefined"}},"geometry":{"type":"Point","coordinates":[-0.71141,42.7877]}},{"type":"Feature","id":3297,"properties":{"id":3297,"lien":"https://thurii.com/","nom":"Auberge du Godet","sym":" Residence","coord":{"alt":1380},"type":{"id":9,"valeur":"lodging","icon":"lodging"},"places":{"nom":"Places pour dormir","valeur":38},"etat":{"valeur":"undefined"}},"geometry":{"type":"Point","coordinates":[7.23381,46.2878]}},{"type":"Feature","id":3298,"properties":{"id":3298,"lien":"https://thurii.com/","nom":"Refuge Selleries","sym":" Residence","coord":{"alt":2023},"type":{"id":9,"valeur":"lodging","icon":"lodging"},"places":{"nom":"Places pour dormir","valeur":40},"etat":{"valeur":"undefined"}},"geometry":{"type":"Point","coordinates":[7.12034,45.0476]}},{"type":"Feature","id":3299,"properties":{"id":3299,"lien":"https://thurii.com/","nom":"Refuge du Petit Mont-Cenis","sym":" Residence","coord":{"alt":2110},"type":{"id":9,"valeur":"lodging","icon":"lodging"},"places":{"nom":"Places pour dormir","valeur":55},"etat":{"valeur":"undefined"}},"geometry":{"type":"Point","coordinates":[6.8833,45.2159]}},{"type":"Feature","id":3300,"properties":{"id":3300,"lien":"https://thurii.com/","nom":"Lui d Août","sym":" Residence","coord":{"alt":1957},"type":{"id":9,"valeur":"lodging","icon":"lodging"},"places":{"nom":"Places pour dormir","valeur":36},"etat":{"valeur":"undefined"}},"geometry":{"type":"Point","coordinates":[7.13883,46.1936]}},{"type":"Feature","id":3301,"properties":{"id":3301,"lien":"https://thurii.com/","nom":"Les chalets de l Armera","sym":" Residence","coord":{"alt":1680},"type":{"id":9,"valeur":"lodging","icon":"lodging"},"places":{"nom":"Places pour dormir","valeur":30},"etat":{"valeur":"undefined"}},"geometry":{"type":"Point","coordinates":[6.47009,45.181]}},{"type":"Feature","id":3302,"properties":{"id":3302,"lien":"https://thurii.com/","nom":"Gite des Tavernes","sym":" Residence","coord":{"alt":1640},"type":{"id":9,"valeur":"lodging","icon":"lodging"},"places":{"nom":"Places pour dormir","valeur":30},"etat":{"valeur":"undefined"}},"geometry":{"type":"Point","coordinates":[6.64992,45.1667]}},{"type":"Feature","id":3303,"properties":{"id":3303,"lien":"https://thurii.com/","nom":"Pont de Nant","sym":" Residence","coord":{"alt":1253},"type":{"id":9,"valeur":"lodging","icon":"lodging"},"places":{"nom":"Places pour dormir","valeur":30},"etat":{"valeur":"undefined"}},"geometry":{"type":"Point","coordinates":[7.11047,46.252]}},{"type":"Feature","id":3304,"properties":{"id":3304,"lien":"https://thurii.com/","nom":"Scex Carro","sym":" Residence","coord":{"alt":2000},"type":{"id":9,"valeur":"lodging","icon":"lodging"},"places":{"nom":"Places pour dormir","valeur":28},"etat":{"valeur":"undefined"}},"geometry":{"type":"Point","coordinates":[7.07903,46.1575]}},{"type":"Feature","id":3305,"properties":{"id":3305,"lien":"https://thurii.com/","nom":"Refuge du Laverq","sym":" Residence","coord":{"alt":1570},"type":{"id":9,"valeur":"lodging","icon":"lodging"},"places":{"nom":"Places pour dormir","valeur":33},"etat":{"valeur":"undefined"}},"geometry":{"type":"Point","coordinates":[6.5042,44.3496]}},{"type":"Feature","id":3306,"properties":{"id":3306,"lien":"https://thurii.com/","nom":"Gite de la molière","sym":" Residence","coord":{"alt":1565},"type":{"id":9,"valeur":"lodging","icon":"lodging"},"places":{"nom":"Places pour dormir","valeur":19},"etat":{"valeur":"undefined"}},"geometry":{"type":"Point","coordinates":[5.59024,45.18]}},{"type":"Feature","id":3307,"properties":{"id":3307,"lien":"https://thurii.com/","nom":"Chalet Au Fil de l Onde","sym":" Residence","coord":{"alt":1144},"type":{"id":9,"valeur":"lodging","icon":"lodging"},"places":{"nom":"Places pour dormir","valeur":12},"etat":{"valeur":"undefined"}},"geometry":{"type":"Point","coordinates":[6.48847,44.8392]}},{"type":"Feature","id":3308,"properties":{"id":3308,"lien":"https://thurii.com/","nom":"Gîte La Boudio (Cantal)","sym":" Residence","coord":{"alt":1100},"type":{"id":9,"valeur":"lodging","icon":"lodging"},"places":{"nom":"Places pour dormir","valeur":30},"etat":{"valeur":"undefined"}},"geometry":{"type":"Point","coordinates":[2.73938,45.1255]}},{"type":"Feature","id":3309,"properties":{"id":3309,"lien":"https://thurii.com/","nom":"Buron de la Croix St Robert","sym":" Residence","coord":{"alt":1324},"type":{"id":9,"valeur":"lodging","icon":"lodging"},"places":{"nom":"Places pour dormir","valeur":10},"etat":{"valeur":"undefined"}},"geometry":{"type":"Point","coordinates":[2.85326,45.5602]}},{"type":"Feature","id":3310,"properties":{"id":3310,"lien":"https://thurii.com/","nom":"Le buron du col","sym":" Residence","coord":{"alt":1401},"type":{"id":9,"valeur":"lodging","icon":"lodging"},"places":{"nom":"Places pour dormir","valeur":12},"etat":{"valeur":"undefined"}},"geometry":{"type":"Point","coordinates":[2.85161,45.5968]}},{"type":"Feature","id":3311,"properties":{"id":3311,"lien":"https://thurii.com/","nom":"Gîte d’étape de Pessade (Sancy)","sym":" Residence","coord":{"alt":1170},"type":{"id":9,"valeur":"lodging","icon":"lodging"},"places":{"nom":"Places pour dormir","valeur":30},"etat":{"valeur":"undefined"}},"geometry":{"type":"Point","coordinates":[2.88914,45.6355]}},{"type":"Feature","id":3312,"properties":{"id":3312,"lien":"https://thurii.com/","nom":"Gîte d Angèle Andant (Laschamp)","sym":" Residence","coord":{"alt":959},"type":{"id":9,"valeur":"lodging","icon":"lodging"},"places":{"nom":"Places pour dormir","valeur":27},"etat":{"valeur":"undefined"}},"geometry":{"type":"Point","coordinates":[2.9663,45.7408]}},{"type":"Feature","id":3313,"properties":{"id":3313,"lien":"https://thurii.com/","nom":"Gîte de Montlosier","sym":" Residence","coord":{"alt":968},"type":{"id":9,"valeur":"lodging","icon":"lodging"},"places":{"nom":"Places pour dormir","valeur":28},"etat":{"valeur":"undefined"}},"geometry":{"type":"Point","coordinates":[2.9513,45.6938]}},{"type":"Feature","id":3314,"properties":{"id":3314,"lien":"https://thurii.com/","nom":"Le Pas du Loup","sym":" Residence","coord":{"alt":1530},"type":{"id":9,"valeur":"lodging","icon":"lodging"},"places":{"nom":"Places pour dormir","valeur":30},"etat":{"valeur":"undefined"}},"geometry":{"type":"Point","coordinates":[6.5643,44.8304]}},{"type":"Feature","id":3315,"properties":{"id":3315,"lien":"https://thurii.com/","nom":"Gîte auberge La Blanche","sym":" Residence","coord":{"alt":1260},"type":{"id":9,"valeur":"lodging","icon":"lodging"},"places":{"nom":"Places pour dormir","valeur":40},"etat":{"valeur":"undefined"}},"geometry":{"type":"Point","coordinates":[6.49116,44.8618]}},{"type":"Feature","id":3316,"properties":{"id":3316,"lien":"https://thurii.com/","nom":"Gîte les Rivaux","sym":" Residence","coord":{"alt":970},"type":{"id":9,"valeur":"lodging","icon":"lodging"},"places":{"nom":"Places pour dormir","valeur":34},"etat":{"valeur":"undefined"}},"geometry":{"type":"Point","coordinates":[2.83034,45.4103]}},{"type":"Feature","id":3317,"properties":{"id":3317,"lien":"https://thurii.com/","nom":"Chalet Alpin de l Eychauda","sym":" Residence","coord":{"alt":1267},"type":{"id":9,"valeur":"lodging","icon":"lodging"},"places":{"nom":"Places pour dormir","valeur":76},"etat":{"valeur":"undefined"}},"geometry":{"type":"Point","coordinates":[6.4922,44.8605]}},{"type":"Feature","id":3318,"properties":{"id":3318,"lien":"https://thurii.com/","nom":"Refuge du Bois","sym":" Residence","coord":{"alt":1469},"type":{"id":9,"valeur":"lodging","icon":"lodging"},"places":{"nom":"Places pour dormir","valeur":56},"etat":{"valeur":"undefined"}},"geometry":{"type":"Point","coordinates":[6.7444,45.4595]}},{"type":"Feature","id":3319,"properties":{"id":3319,"lien":"https://thurii.com/","nom":"Auberge du col de la Moréno","sym":" Residence","coord":{"alt":1062},"type":{"id":9,"valeur":"lodging","icon":"lodging"},"places":{"nom":"Places pour dormir","valeur":20},"etat":{"valeur":"undefined"}},"geometry":{"type":"Point","coordinates":[2.94856,45.7418]}},{"type":"Feature","id":3320,"properties":{"id":3320,"lien":"https://thurii.com/","nom":"Gîte communal du Falgoux","sym":" Residence","coord":{"alt":900},"type":{"id":9,"valeur":"lodging","icon":"lodging"},"places":{"nom":"Places pour dormir","valeur":25},"etat":{"valeur":"undefined"}},"geometry":{"type":"Point","coordinates":[2.61994,45.1532]}},{"type":"Feature","id":3321,"properties":{"id":3321,"lien":"https://thurii.com/","nom":"Gîte d Artense","sym":" Residence","coord":{"alt":1050},"type":{"id":9,"valeur":"lodging","icon":"lodging"},"places":{"nom":"Places pour dormir","valeur":50},"etat":{"valeur":"undefined"}},"geometry":{"type":"Point","coordinates":[2.808,45.5727]}},{"type":"Feature","id":3322,"properties":{"id":3322,"lien":"https://thurii.com/","nom":"Gite Lou Mayèn de Léne","sym":" Residence","coord":{"alt":2040},"type":{"id":9,"valeur":"lodging","icon":"lodging"},"places":{"nom":"Places pour dormir","valeur":5},"etat":{"valeur":"undefined"}},"geometry":{"type":"Point","coordinates":[7.30359,45.6212]}},{"type":"Feature","id":3323,"properties":{"id":3323,"lien":"https://thurii.com/","nom":"Refuge du Palet","sym":" Residence","coord":{"alt":2587},"type":{"id":9,"valeur":"lodging","icon":"lodging"},"places":{"nom":"Places pour dormir","valeur":47},"etat":{"valeur":"undefined"}},"geometry":{"type":"Point","coordinates":[6.86113,45.4583]}},{"type":"Feature","id":3324,"properties":{"id":3324,"lien":"https://thurii.com/","nom":"Gîte-Refuge de la Juliane","sym":" Residence","coord":{"alt":1420},"type":{"id":9,"valeur":"lodging","icon":"lodging"},"places":{"nom":"Places pour dormir","valeur":16},"etat":{"valeur":"undefined"}},"geometry":{"type":"Point","coordinates":[6.4963,44.8636]}},{"type":"Feature","id":3325,"properties":{"id":3325,"lien":"https://thurii.com/","nom":"Refuge de Campblanc","sym":" Residence","coord":{"alt":975},"type":{"id":9,"valeur":"lodging","icon":"lodging"},"places":{"nom":"Places pour dormir","valeur":20},"etat":{"valeur":"undefined"}},"geometry":{"type":"Point","coordinates":[2.8022,43.5679]}},{"type":"Feature","id":3326,"properties":{"id":3326,"lien":"https://thurii.com/","nom":"Refuge-Buron des Rajas (Aubrac)","sym":" Residence","coord":{"alt":1325},"type":{"id":9,"valeur":"lodging","icon":"lodging"},"places":{"nom":"Places pour dormir","valeur":21},"etat":{"valeur":"undefined"}},"geometry":{"type":"Point","coordinates":[3.09357,44.5763]}},{"type":"Feature","id":3327,"properties":{"id":3327,"lien":"https://thurii.com/","nom":"Les Prés Marty (col de Prat-de-Bouc, Cantal))","sym":" Residence","coord":{"alt":1400},"type":{"id":9,"valeur":"lodging","icon":"lodging"},"places":{"nom":"Places pour dormir","valeur":36},"etat":{"valeur":"undefined"}},"geometry":{"type":"Point","coordinates":[2.7931,45.0526]}},{"type":"Feature","id":3328,"properties":{"id":3328,"lien":"https://thurii.com/","nom":"Refuge des Barmettes","sym":" Residence","coord":{"alt":2012},"type":{"id":9,"valeur":"lodging","icon":"lodging"},"places":{"nom":"Places pour dormir","valeur":24},"etat":{"valeur":"undefined"}},"geometry":{"type":"Point","coordinates":[6.75271,45.3896]}},{"type":"Feature","id":3329,"properties":{"id":3329,"lien":"https://thurii.com/","nom":"Gîte de Lugarde (Cézalier)","sym":" Residence","coord":{"alt":1040},"type":{"id":9,"valeur":"lodging","icon":"lodging"},"places":{"nom":"Places pour dormir","valeur":20},"etat":{"valeur":"undefined"}},"geometry":{"type":"Point","coordinates":[2.76115,45.2881]}},{"type":"Feature","id":3330,"properties":{"id":3330,"lien":"https://thurii.com/","nom":"Tour des Anglais (gîte communal)","sym":" Residence","coord":{"alt":1340},"type":{"id":9,"valeur":"lodging","icon":"lodging"},"places":{"nom":"Places pour dormir","valeur":24},"etat":{"valeur":"undefined"}},"geometry":{"type":"Point","coordinates":[2.9869,44.6222]}},{"type":"Feature","id":3331,"properties":{"id":3331,"lien":"https://thurii.com/","nom":"Refuge de La Vare","sym":" Residence","coord":{"alt":1756},"type":{"id":9,"valeur":"lodging","icon":"lodging"},"places":{"nom":"Places pour dormir","valeur":31},"etat":{"valeur":"undefined"}},"geometry":{"type":"Point","coordinates":[7.13784,46.2617]}},{"type":"Feature","id":3332,"properties":{"id":3332,"lien":"https://thurii.com/","nom":"Les Violettes","sym":" Residence","coord":{"alt":2209},"type":{"id":9,"valeur":"lodging","icon":"lodging"},"places":{"nom":"Places pour dormir","valeur":24},"etat":{"valeur":"undefined"}},"geometry":{"type":"Point","coordinates":[7.50003,46.3424]}},{"type":"Feature","id":3333,"properties":{"id":3333,"lien":"https://thurii.com/","nom":"Gites du chastel","sym":" Residence","coord":{"alt":875},"type":{"id":9,"valeur":"lodging","icon":"lodging"},"places":{"nom":"Places pour dormir","valeur":40},"etat":{"valeur":"undefined"}},"geometry":{"type":"Point","coordinates":[3.73832,44.3642]}},{"type":"Feature","id":3334,"properties":{"id":3334,"lien":"https://thurii.com/","nom":"Chalet CAF du Sancy","sym":" Residence","coord":{"alt":1275},"type":{"id":9,"valeur":"lodging","icon":"lodging"},"places":{"nom":"Places pour dormir","valeur":39},"etat":{"valeur":"undefined"}},"geometry":{"type":"Point","coordinates":[2.81561,45.5471]}},{"type":"Feature","id":3335,"properties":{"id":3335,"lien":"https://thurii.com/","nom":"Refuge de la Banne","sym":" Residence","coord":{"alt":1334},"type":{"id":9,"valeur":"lodging","icon":"lodging"},"places":{"nom":"Places pour dormir","valeur":15},"etat":{"valeur":"undefined"}},"geometry":{"type":"Point","coordinates":[2.76927,45.618]}},{"type":"Feature","id":3336,"properties":{"id":3336,"lien":"https://thurii.com/","nom":"Chalet Refuge du Pré de Mme Carle","sym":" Residence","coord":{"alt":1874},"type":{"id":9,"valeur":"lodging","icon":"lodging"},"places":{"nom":"Places pour dormir","valeur":54},"etat":{"valeur":"undefined"}},"geometry":{"type":"Point","coordinates":[6.41563,44.9177]}},{"type":"Feature","id":3337,"properties":{"id":3337,"lien":"https://thurii.com/","nom":"Habert d Aiguebelle","sym":" Residence","coord":{"alt":1735},"type":{"id":9,"valeur":"lodging","icon":"lodging"},"places":{"nom":"Places pour dormir","valeur":26},"etat":{"valeur":"undefined"}},"geometry":{"type":"Point","coordinates":[6.01957,45.2234]}},{"type":"Feature","id":3338,"properties":{"id":3338,"lien":"https://thurii.com/","nom":"Fromatthütte","sym":" Residence","coord":{"alt":1800},"type":{"id":9,"valeur":"lodging","icon":"lodging"},"places":{"nom":"Places pour dormir","valeur":27},"etat":{"valeur":"undefined"}},"geometry":{"type":"Point","coordinates":[7.43277,46.5457]}},{"type":"Feature","id":3339,"properties":{"id":3339,"lien":"https://thurii.com/","nom":"Refuge de la Pousterle","sym":" Crossing","coord":{"alt":1750},"type":{"id":9,"valeur":"lodging","icon":"lodging"},"places":{"nom":"Places pour dormir","valeur":13},"etat":{"valeur":"undefined"}},"geometry":{"type":"Point","coordinates":[6.5146,44.8008]}},{"type":"Feature","id":3340,"properties":{"id":3340,"lien":"https://thurii.com/","nom":"Gîte d étape L Aiglière","sym":" Residence","coord":{"alt":1167},"type":{"id":9,"valeur":"lodging","icon":"lodging"},"places":{"nom":"Places pour dormir","valeur":21},"etat":{"valeur":"undefined"}},"geometry":{"type":"Point","coordinates":[6.48429,44.844]}},{"type":"Feature","id":3341,"properties":{"id":3341,"lien":"https://thurii.com/","nom":"Le refuge","sym":" Residence","coord":{"alt":1022},"type":{"id":9,"valeur":"lodging","icon":"lodging"},"places":{"nom":"Places pour dormir","valeur":44},"etat":{"valeur":"undefined"}},"geometry":{"type":"Point","coordinates":[9.17642,41.6461]}},{"type":"Feature","id":3342,"properties":{"id":3342,"lien":"https://thurii.com/","nom":"Gîte d étape de Levie","sym":" Residence","coord":{"alt":612},"type":{"id":9,"valeur":"lodging","icon":"lodging"},"places":{"nom":"Places pour dormir","valeur":25},"etat":{"valeur":"undefined"}},"geometry":{"type":"Point","coordinates":[9.12287,41.7032]}},{"type":"Feature","id":3343,"properties":{"id":3343,"lien":"https://thurii.com/","nom":"Gîte du Pont d Arsine","sym":" Crossing","coord":{"alt":1667},"type":{"id":9,"valeur":"lodging","icon":"lodging"},"places":{"nom":"Places pour dormir","valeur":0},"etat":{"valeur":"undefined"}},"geometry":{"type":"Point","coordinates":[6.36258,45.0308]}},{"type":"Feature","id":3344,"properties":{"id":3344,"lien":"https://thurii.com/","nom":"Chez Pierrot","sym":" Residence","coord":{"alt":1120},"type":{"id":9,"valeur":"lodging","icon":"lodging"},"places":{"nom":"Places pour dormir","valeur":30},"etat":{"valeur":"undefined"}},"geometry":{"type":"Point","coordinates":[9.12532,41.7842]}},{"type":"Feature","id":3345,"properties":{"id":3345,"lien":"https://thurii.com/","nom":"Refuge des Puys","sym":" Residence","coord":{"alt":850},"type":{"id":9,"valeur":"lodging","icon":"lodging"},"places":{"nom":"Places pour dormir","valeur":12},"etat":{"valeur":"undefined"}},"geometry":{"type":"Point","coordinates":[2.91636,45.8228]}},{"type":"Feature","id":3346,"properties":{"id":3346,"lien":"https://thurii.com/","nom":"Cabane de Louvie","sym":" Residence","coord":{"alt":2207},"type":{"id":9,"valeur":"lodging","icon":"lodging"},"places":{"nom":"Places pour dormir","valeur":54},"etat":{"valeur":"undefined"}},"geometry":{"type":"Point","coordinates":[7.30625,46.0468]}},{"type":"Feature","id":3347,"properties":{"id":3347,"lien":"https://thurii.com/","nom":"Refuge du Laisonnay","sym":" Residence","coord":{"alt":1590},"type":{"id":9,"valeur":"lodging","icon":"lodging"},"places":{"nom":"Places pour dormir","valeur":16},"etat":{"valeur":"undefined"}},"geometry":{"type":"Point","coordinates":[6.7813,45.4471]}},{"type":"Feature","id":3348,"properties":{"id":3348,"lien":"https://thurii.com/","nom":"Gîte l Essentiel","sym":" Residence","coord":{"alt":1100},"type":{"id":9,"valeur":"lodging","icon":"lodging"},"places":{"nom":"Places pour dormir","valeur":42},"etat":{"valeur":"undefined"}},"geometry":{"type":"Point","coordinates":[6.07319,45.2798]}},{"type":"Feature","id":3349,"properties":{"id":3349,"lien":"https://thurii.com/","nom":"Berggasthaus Fluhalp (Hôtel Fluh)","sym":" Residence","coord":{"alt":2618},"type":{"id":9,"valeur":"lodging","icon":"lodging"},"places":{"nom":"Places pour dormir","valeur":50},"etat":{"valeur":"undefined"}},"geometry":{"type":"Point","coordinates":[7.8109,46.0127]}},{"type":"Feature","id":3350,"properties":{"id":3350,"lien":"https://thurii.com/","nom":"Refuge Entre le Lac","sym":" Residence","coord":{"alt":2146},"type":{"id":9,"valeur":"lodging","icon":"lodging"},"places":{"nom":"Places pour dormir","valeur":40},"etat":{"valeur":"undefined"}},"geometry":{"type":"Point","coordinates":[6.8388,45.4805]}},{"type":"Feature","id":3351,"properties":{"id":3351,"lien":"https://thurii.com/","nom":"Ferme équestre des Quatre Chemins","sym":" Residence","coord":{"alt":1000},"type":{"id":9,"valeur":"lodging","icon":"lodging"},"places":{"nom":"Places pour dormir","valeur":26},"etat":{"valeur":"undefined"}},"geometry":{"type":"Point","coordinates":[5.57116,44.8187]}},{"type":"Feature","id":3352,"properties":{"id":3352,"lien":"https://thurii.com/","nom":"Gite d etape et de sejour La Martinette","sym":" Residence","coord":{"alt":1070},"type":{"id":9,"valeur":"lodging","icon":"lodging"},"places":{"nom":"Places pour dormir","valeur":30},"etat":{"valeur":"undefined"}},"geometry":{"type":"Point","coordinates":[6.07639,45.2814]}},{"type":"Feature","id":3353,"properties":{"id":3353,"lien":"https://thurii.com/","nom":"Refuge du Mont Jovet","sym":" Residence","coord":{"alt":2350},"type":{"id":9,"valeur":"lodging","icon":"lodging"},"places":{"nom":"Places pour dormir","valeur":20},"etat":{"valeur":"undefined"}},"geometry":{"type":"Point","coordinates":[6.63138,45.4911]}},{"type":"Feature","id":3354,"properties":{"id":3354,"lien":"https://thurii.com/","nom":"Gite du Lac Servieres","sym":" Residence","coord":{"alt":0},"type":{"id":9,"valeur":"lodging","icon":"lodging"},"places":{"nom":"Places pour dormir","valeur":20},"etat":{"valeur":"undefined"}},"geometry":{"type":"Point","coordinates":[2.85167,45.6479]}},{"type":"Feature","id":3355,"properties":{"id":3355,"lien":"https://thurii.com/","nom":"Refuge du Crêt du Poulet","sym":" Residence","coord":{"alt":1700},"type":{"id":9,"valeur":"lodging","icon":"lodging"},"places":{"nom":"Places pour dormir","valeur":23},"etat":{"valeur":"undefined"}},"geometry":{"type":"Point","coordinates":[6.0598,45.3286]}},{"type":"Feature","id":3356,"properties":{"id":3356,"lien":"https://thurii.com/","nom":"Lämmerenhütte","sym":" Residence","coord":{"alt":2502},"type":{"id":9,"valeur":"lodging","icon":"lodging"},"places":{"nom":"Places pour dormir","valeur":96},"etat":{"valeur":"undefined"}},"geometry":{"type":"Point","coordinates":[7.57447,46.4001]}},{"type":"Feature","id":3357,"properties":{"id":3357,"lien":"https://thurii.com/","nom":"Cabane du Mont Fort","sym":" Residence","coord":{"alt":2457},"type":{"id":9,"valeur":"lodging","icon":"lodging"},"places":{"nom":"Places pour dormir","valeur":58},"etat":{"valeur":"undefined"}},"geometry":{"type":"Point","coordinates":[7.281,46.0836]}},{"type":"Feature","id":3358,"properties":{"id":3358,"lien":"https://thurii.com/","nom":"Gîte du Gibertès","sym":" Crossing","coord":{"alt":1100},"type":{"id":9,"valeur":"lodging","icon":"lodging"},"places":{"nom":"Places pour dormir","valeur":30},"etat":{"valeur":"undefined"}},"geometry":{"type":"Point","coordinates":[3.20949,44.63]}},{"type":"Feature","id":3359,"properties":{"id":3359,"lien":"https://thurii.com/","nom":"Alpage du Freu","sym":" Residence","coord":{"alt":1690},"type":{"id":9,"valeur":"lodging","icon":"lodging"},"places":{"nom":"Places pour dormir","valeur":39},"etat":{"valeur":"undefined"}},"geometry":{"type":"Point","coordinates":[6.40529,45.8193]}},{"type":"Feature","id":3360,"properties":{"id":3360,"lien":"https://thurii.com/","nom":"L Etoile","sym":" Residence","coord":{"alt":1010},"type":{"id":9,"valeur":"lodging","icon":"lodging"},"places":{"nom":"Places pour dormir","valeur":15},"etat":{"valeur":"undefined"}},"geometry":{"type":"Point","coordinates":[3.9039,44.5915]}},{"type":"Feature","id":3361,"properties":{"id":3361,"lien":"https://thurii.com/","nom":"Chalet-refuge du Lac du Schiessrotried","sym":" Residence","coord":{"alt":950},"type":{"id":9,"valeur":"lodging","icon":"lodging"},"places":{"nom":"Places pour dormir","valeur":40},"etat":{"valeur":"undefined"}},"geometry":{"type":"Point","coordinates":[7.02488,48.0316]}},{"type":"Feature","id":3362,"properties":{"id":3362,"lien":"https://thurii.com/","nom":"Le Montavoix","sym":" Residence","coord":{"alt":692},"type":{"id":9,"valeur":"lodging","icon":"lodging"},"places":{"nom":"Places pour dormir","valeur":12},"etat":{"valeur":"undefined"}},"geometry":{"type":"Point","coordinates":[5.89354,46.3855]}},{"type":"Feature","id":3363,"properties":{"id":3363,"lien":"https://thurii.com/","nom":"Refuge du col d Allos","sym":" Residence","coord":{"alt":2250},"type":{"id":9,"valeur":"lodging","icon":"lodging"},"places":{"nom":"Places pour dormir","valeur":40},"etat":{"valeur":"undefined"}},"geometry":{"type":"Point","coordinates":[6.59578,44.2978]}},{"type":"Feature","id":3364,"properties":{"id":3364,"lien":"https://thurii.com/","nom":"Refuge Troncea","sym":" Residence","coord":{"alt":1915},"type":{"id":9,"valeur":"lodging","icon":"lodging"},"places":{"nom":"Places pour dormir","valeur":40},"etat":{"valeur":"undefined"}},"geometry":{"type":"Point","coordinates":[6.95241,44.953]}},{"type":"Feature","id":3365,"properties":{"id":3365,"lien":"https://thurii.com/","nom":"Cabane des Ecoulaies","sym":" Residence","coord":{"alt":2575},"type":{"id":9,"valeur":"lodging","icon":"lodging"},"places":{"nom":"Places pour dormir","valeur":25},"etat":{"valeur":"undefined"}},"geometry":{"type":"Point","coordinates":[7.3798,46.0635]}},{"type":"Feature","id":3366,"properties":{"id":3366,"lien":"https://thurii.com/","nom":"Gite communal de Mijoux","sym":" Crossing","coord":{"alt":990},"type":{"id":9,"valeur":"lodging","icon":"lodging"},"places":{"nom":"Places pour dormir","valeur":12},"etat":{"valeur":"undefined"}},"geometry":{"type":"Point","coordinates":[5.99773,46.3677]}},{"type":"Feature","id":3367,"properties":{"id":3367,"lien":"https://thurii.com/","nom":"Refuge de la Cayolle","sym":" Residence","coord":{"alt":2266},"type":{"id":9,"valeur":"lodging","icon":"lodging"},"places":{"nom":"Places pour dormir","valeur":32},"etat":{"valeur":"undefined"}},"geometry":{"type":"Point","coordinates":[6.74542,44.2639]}},{"type":"Feature","id":3368,"properties":{"id":3368,"lien":"https://thurii.com/","nom":"Chalet Gaillard","sym":" Residence","coord":{"alt":1232},"type":{"id":9,"valeur":"lodging","icon":"lodging"},"places":{"nom":"Places pour dormir","valeur":19},"etat":{"valeur":"undefined"}},"geometry":{"type":"Point","coordinates":[6.12167,46.5632]}},{"type":"Feature","id":3369,"properties":{"id":3369,"lien":"https://thurii.com/","nom":"Au Chat Bleu","sym":" Residence","coord":{"alt":850},"type":{"id":9,"valeur":"lodging","icon":"lodging"},"places":{"nom":"Places pour dormir","valeur":30},"etat":{"valeur":"undefined"}},"geometry":{"type":"Point","coordinates":[3.96985,44.6069]}},{"type":"Feature","id":3370,"properties":{"id":3370,"lien":"https://thurii.com/","nom":"Fort Marie Christine","sym":" Residence","coord":{"alt":1483},"type":{"id":9,"valeur":"lodging","icon":"lodging"},"places":{"nom":"Places pour dormir","valeur":80},"etat":{"valeur":"undefined"}},"geometry":{"type":"Point","coordinates":[6.73497,45.2214]}},{"type":"Feature","id":3371,"properties":{"id":3371,"lien":"https://thurii.com/","nom":"Refuge le Repoju","sym":" Residence","coord":{"alt":1710},"type":{"id":9,"valeur":"lodging","icon":"lodging"},"places":{"nom":"Places pour dormir","valeur":28},"etat":{"valeur":"undefined"}},"geometry":{"type":"Point","coordinates":[6.70157,45.3476]}},{"type":"Feature","id":3372,"properties":{"id":3372,"lien":"https://thurii.com/","nom":"Rifugio Alpenzu","sym":" Residence","coord":{"alt":1776},"type":{"id":9,"valeur":"lodging","icon":"lodging"},"places":{"nom":"Places pour dormir","valeur":30},"etat":{"valeur":"undefined"}},"geometry":{"type":"Point","coordinates":[7.81621,45.7991]}},{"type":"Feature","id":3373,"properties":{"id":3373,"lien":"https://thurii.com/","nom":"Refuge du Lac Blanc","sym":" Residence","coord":{"alt":2300},"type":{"id":9,"valeur":"lodging","icon":"lodging"},"places":{"nom":"Places pour dormir","valeur":18},"etat":{"valeur":"undefined"}},"geometry":{"type":"Point","coordinates":[6.81739,45.3188]}},{"type":"Feature","id":3374,"properties":{"id":3374,"lien":"https://thurii.com/","nom":"Refuge de Plan Sec","sym":" Residence","coord":{"alt":2320},"type":{"id":9,"valeur":"lodging","icon":"lodging"},"places":{"nom":"Places pour dormir","valeur":64},"etat":{"valeur":"undefined"}},"geometry":{"type":"Point","coordinates":[6.73104,45.2573]}},{"type":"Feature","id":3375,"properties":{"id":3375,"lien":"https://thurii.com/","nom":"Refuge de la Fournache","sym":" Residence","coord":{"alt":2358},"type":{"id":9,"valeur":"lodging","icon":"lodging"},"places":{"nom":"Places pour dormir","valeur":37},"etat":{"valeur":"undefined"}},"geometry":{"type":"Point","coordinates":[6.72499,45.2656]}},{"type":"Feature","id":3376,"properties":{"id":3376,"lien":"https://thurii.com/","nom":"Ferme auberge du Gleyzin","sym":" Crossing","coord":{"alt":1096},"type":{"id":9,"valeur":"lodging","icon":"lodging"},"places":{"nom":"Places pour dormir","valeur":20},"etat":{"valeur":"undefined"}},"geometry":{"type":"Point","coordinates":[6.12028,45.3358]}},{"type":"Feature","id":3377,"properties":{"id":3377,"lien":"https://thurii.com/","nom":"Refuge de l Aiguille de Doran","sym":" Crossing","coord":{"alt":1860},"type":{"id":9,"valeur":"lodging","icon":"lodging"},"places":{"nom":"Places pour dormir","valeur":30},"etat":{"valeur":"undefined"}},"geometry":{"type":"Point","coordinates":[6.67501,45.2226]}},{"type":"Feature","id":3378,"properties":{"id":3378,"lien":"https://thurii.com/","nom":"Refuge Agritouristique Alpe Plane","sym":" Residence","coord":{"alt":2085},"type":{"id":9,"valeur":"lodging","icon":"lodging"},"places":{"nom":"Places pour dormir","valeur":12},"etat":{"valeur":"undefined"}},"geometry":{"type":"Point","coordinates":[6.96018,44.8872]}},{"type":"Feature","id":3379,"properties":{"id":3379,"lien":"https://thurii.com/","nom":"La Halte du Prince","sym":" Residence","coord":{"alt":1135},"type":{"id":9,"valeur":"lodging","icon":"lodging"},"places":{"nom":"Places pour dormir","valeur":40},"etat":{"valeur":"undefined"}},"geometry":{"type":"Point","coordinates":[9.12129,42.1145]}},{"type":"Feature","id":3380,"properties":{"id":3380,"lien":"https://thurii.com/","nom":"Rifugio Arp","sym":" Residence","coord":{"alt":2446},"type":{"id":9,"valeur":"lodging","icon":"lodging"},"places":{"nom":"Places pour dormir","valeur":120},"etat":{"valeur":"undefined"}},"geometry":{"type":"Point","coordinates":[7.77717,45.7873]}},{"type":"Feature","id":3381,"properties":{"id":3381,"lien":"https://thurii.com/","nom":"Almagelleralp","sym":" Residence","coord":{"alt":2196},"type":{"id":9,"valeur":"lodging","icon":"lodging"},"places":{"nom":"Places pour dormir","valeur":38},"etat":{"valeur":"undefined"}},"geometry":{"type":"Point","coordinates":[7.98481,46.1011]}},{"type":"Feature","id":3382,"properties":{"id":3382,"lien":"https://thurii.com/","nom":"Gîte d étape les Marmottes","sym":" Residence","coord":{"alt":1300},"type":{"id":9,"valeur":"lodging","icon":"lodging"},"places":{"nom":"Places pour dormir","valeur":25},"etat":{"valeur":"undefined"}},"geometry":{"type":"Point","coordinates":[7.2039,44.0657]}},{"type":"Feature","id":3383,"properties":{"id":3383,"lien":"https://thurii.com/","nom":"Refuge l Auberge de Bellecombe","sym":" Residence","coord":{"alt":2350},"type":{"id":9,"valeur":"lodging","icon":"lodging"},"places":{"nom":"Places pour dormir","valeur":16},"etat":{"valeur":"undefined"}},"geometry":{"type":"Point","coordinates":[6.82714,45.3294]}},{"type":"Feature","id":3384,"properties":{"id":3384,"lien":"https://thurii.com/","nom":"Refuge du Lac du Lou","sym":" Residence","coord":{"alt":2035},"type":{"id":9,"valeur":"lodging","icon":"lodging"},"places":{"nom":"Places pour dormir","valeur":32},"etat":{"valeur":"undefined"}},"geometry":{"type":"Point","coordinates":[6.53053,45.2934]}},{"type":"Feature","id":3385,"properties":{"id":3385,"lien":"https://thurii.com/","nom":"Refuge de Grand Plan","sym":" Residence","coord":{"alt":2300},"type":{"id":9,"valeur":"lodging","icon":"lodging"},"places":{"nom":"Places pour dormir","valeur":26},"etat":{"valeur":"undefined"}},"geometry":{"type":"Point","coordinates":[6.65894,45.3609]}},{"type":"Feature","id":3386,"properties":{"id":3386,"lien":"https://thurii.com/","nom":"Chalet-hôtel du Gioberney","sym":" Residence","coord":{"alt":1650},"type":{"id":9,"valeur":"lodging","icon":"lodging"},"places":{"nom":"Places pour dormir","valeur":72},"etat":{"valeur":"undefined"}},"geometry":{"type":"Point","coordinates":[6.2813,44.8409]}},{"type":"Feature","id":3387,"properties":{"id":3387,"lien":"https://thurii.com/","nom":"Refuge d Entre Deux Eaux","sym":" Residence","coord":{"alt":2120},"type":{"id":9,"valeur":"lodging","icon":"lodging"},"places":{"nom":"Places pour dormir","valeur":38},"etat":{"valeur":"undefined"}},"geometry":{"type":"Point","coordinates":[6.8392,45.3666]}},{"type":"Feature","id":3388,"properties":{"id":3388,"lien":"https://thurii.com/","nom":"RIFUGIO SAN GIUSEPPE","sym":" Residence","coord":{"alt":2016},"type":{"id":9,"valeur":"lodging","icon":"lodging"},"places":{"nom":"Places pour dormir","valeur":28},"etat":{"valeur":"undefined"}},"geometry":{"type":"Point","coordinates":[7.10579,44.2313]}},{"type":"Feature","id":3389,"properties":{"id":3389,"lien":"https://thurii.com/","nom":"Refuge du Rainkopf","sym":" Crossing","coord":{"alt":1207},"type":{"id":9,"valeur":"lodging","icon":"lodging"},"places":{"nom":"Places pour dormir","valeur":0},"etat":{"valeur":"undefined"}},"geometry":{"type":"Point","coordinates":[6.98675,48.0161]}},{"type":"Feature","id":3390,"properties":{"id":3390,"lien":"https://thurii.com/","nom":"Refuge Hus","sym":" Residence","coord":{"alt":1160},"type":{"id":9,"valeur":"lodging","icon":"lodging"},"places":{"nom":"Places pour dormir","valeur":31},"etat":{"valeur":"undefined"}},"geometry":{"type":"Point","coordinates":[6.98343,47.9762]}},{"type":"Feature","id":3391,"properties":{"id":3391,"lien":"https://thurii.com/","nom":"Gîte La Batteuse","sym":" Residence","coord":{"alt":820},"type":{"id":9,"valeur":"lodging","icon":"lodging"},"places":{"nom":"Places pour dormir","valeur":35},"etat":{"valeur":"undefined"}},"geometry":{"type":"Point","coordinates":[5.45308,45.0229]}},{"type":"Feature","id":3392,"properties":{"id":3392,"lien":"https://thurii.com/","nom":"Refuge de Plan Mya","sym":" Residence","coord":{"alt":1860},"type":{"id":9,"valeur":"lodging","icon":"lodging"},"places":{"nom":"Places pour dormir","valeur":20},"etat":{"valeur":"undefined"}},"geometry":{"type":"Point","coordinates":[6.66447,45.6918]}},{"type":"Feature","id":3393,"properties":{"id":3393,"lien":"https://thurii.com/","nom":"Refuge d Aïroz","sym":" Residence","coord":{"alt":1973},"type":{"id":9,"valeur":"lodging","icon":"lodging"},"places":{"nom":"Places pour dormir","valeur":35},"etat":{"valeur":"undefined"}},"geometry":{"type":"Point","coordinates":[7.27469,46.2664]}},{"type":"Feature","id":3394,"properties":{"id":3394,"lien":"https://thurii.com/","nom":"Gîte de Molliessoulaz","sym":" Residence","coord":{"alt":980},"type":{"id":9,"valeur":"lodging","icon":"lodging"},"places":{"nom":"Places pour dormir","valeur":15},"etat":{"valeur":"undefined"}},"geometry":{"type":"Point","coordinates":[6.46167,45.7078]}},{"type":"Feature","id":3395,"properties":{"id":3395,"lien":"https://thurii.com/","nom":"Gîte de Chadebec","sym":" Residence","coord":{"alt":900},"type":{"id":9,"valeur":"lodging","icon":"lodging"},"places":{"nom":"Places pour dormir","valeur":13},"etat":{"valeur":"undefined"}},"geometry":{"type":"Point","coordinates":[1.99965,45.5321]}},{"type":"Feature","id":3396,"properties":{"id":3396,"lien":"https://thurii.com/","nom":"Refuge Toesca","sym":" Residence","coord":{"alt":1710},"type":{"id":9,"valeur":"lodging","icon":"lodging"},"places":{"nom":"Places pour dormir","valeur":20},"etat":{"valeur":"undefined"}},"geometry":{"type":"Point","coordinates":[7.1401,45.0821]}},{"type":"Feature","id":3397,"properties":{"id":3397,"lien":"https://thurii.com/","nom":"Domaine du Bugnon","sym":" Residence","coord":{"alt":934},"type":{"id":9,"valeur":"lodging","icon":"lodging"},"places":{"nom":"Places pour dormir","valeur":0},"etat":{"valeur":"undefined"}},"geometry":{"type":"Point","coordinates":[6.00446,46.6034]}},{"type":"Feature","id":3398,"properties":{"id":3398,"lien":"https://thurii.com/","nom":"Gite Pollen","sym":" Residence","coord":{"alt":1250},"type":{"id":9,"valeur":"lodging","icon":"lodging"},"places":{"nom":"Places pour dormir","valeur":25},"etat":{"valeur":"undefined"}},"geometry":{"type":"Point","coordinates":[6.65167,45.5733]}},{"type":"Feature","id":3399,"properties":{"id":3399,"lien":"https://thurii.com/","nom":"Grindelwaldblick","sym":" Residence","coord":{"alt":2108},"type":{"id":9,"valeur":"lodging","icon":"lodging"},"places":{"nom":"Places pour dormir","valeur":54},"etat":{"valeur":"undefined"}},"geometry":{"type":"Point","coordinates":[7.96072,46.5894]}},{"type":"Feature","id":3400,"properties":{"id":3400,"lien":"https://thurii.com/","nom":"U Fracintu","sym":" Residence","coord":{"alt":182},"type":{"id":9,"valeur":"lodging","icon":"lodging"},"places":{"nom":"Places pour dormir","valeur":75},"etat":{"valeur":"undefined"}},"geometry":{"type":"Point","coordinates":[8.97549,41.7126]}},{"type":"Feature","id":3401,"properties":{"id":3401,"lien":"https://thurii.com/","nom":"Kühboden","sym":" Residence","coord":{"alt":2212},"type":{"id":9,"valeur":"lodging","icon":"lodging"},"places":{"nom":"Places pour dormir","valeur":102},"etat":{"valeur":"undefined"}},"geometry":{"type":"Point","coordinates":[8.10337,46.413]}},{"type":"Feature","id":3402,"properties":{"id":3402,"lien":"https://thurii.com/","nom":"U Fragnonu","sym":" Residence","coord":{"alt":510},"type":{"id":9,"valeur":"lodging","icon":"lodging"},"places":{"nom":"Places pour dormir","valeur":32},"etat":{"valeur":"undefined"}},"geometry":{"type":"Point","coordinates":[9.06382,41.7004]}},{"type":"Feature","id":3403,"properties":{"id":3403,"lien":"https://thurii.com/","nom":"Centre alpin Le Chamois","sym":" Residence","coord":{"alt":1720},"type":{"id":9,"valeur":"lodging","icon":"lodging"},"places":{"nom":"Places pour dormir","valeur":32},"etat":{"valeur":"undefined"}},"geometry":{"type":"Point","coordinates":[6.29399,44.9305]}},{"type":"Feature","id":3404,"properties":{"id":3404,"lien":"https://thurii.com/","nom":"Refuge de la Pierre du Carre","sym":" Residence","coord":{"alt":1761},"type":{"id":9,"valeur":"lodging","icon":"lodging"},"places":{"nom":"Places pour dormir","valeur":16},"etat":{"valeur":"undefined"}},"geometry":{"type":"Point","coordinates":[6.14318,45.3784]}},{"type":"Feature","id":3405,"properties":{"id":3405,"lien":"https://thurii.com/","nom":"Cabana la Pintada","sym":" Residence","coord":{"alt":3950},"type":{"id":9,"valeur":"lodging","icon":"lodging"},"places":{"nom":"Places pour dormir","valeur":15},"etat":{"valeur":"undefined"}},"geometry":{"type":"Point","coordinates":[-72.3354,6.36585]}},{"type":"Feature","id":3406,"properties":{"id":3406,"lien":"https://thurii.com/","nom":"Zar Senni","sym":" Residence","coord":{"alt":1664},"type":{"id":9,"valeur":"lodging","icon":"lodging"},"places":{"nom":"Places pour dormir","valeur":14},"etat":{"valeur":"undefined"}},"geometry":{"type":"Point","coordinates":[7.92122,45.8448]}},{"type":"Feature","id":3407,"properties":{"id":3407,"lien":"https://thurii.com/","nom":"Gîte de Lourantse","sym":" Residence","coord":{"alt":1815},"type":{"id":9,"valeur":"lodging","icon":"lodging"},"places":{"nom":"Places pour dormir","valeur":18},"etat":{"valeur":"undefined"}},"geometry":{"type":"Point","coordinates":[7.42046,46.3552]}},{"type":"Feature","id":3408,"properties":{"id":3408,"lien":"https://thurii.com/","nom":"Hacienda la Esperanza","sym":" Residence","coord":{"alt":3600},"type":{"id":9,"valeur":"lodging","icon":"lodging"},"places":{"nom":"Places pour dormir","valeur":0},"etat":{"valeur":"undefined"}},"geometry":{"type":"Point","coordinates":[-72.3541,6.41875]}},{"type":"Feature","id":3409,"properties":{"id":3409,"lien":"https://thurii.com/","nom":"Refuge de la Nova","sym":" Residence","coord":{"alt":1550},"type":{"id":9,"valeur":"lodging","icon":"lodging"},"places":{"nom":"Places pour dormir","valeur":70},"etat":{"valeur":"undefined"}},"geometry":{"type":"Point","coordinates":[6.73383,45.6966]}},{"type":"Feature","id":3410,"properties":{"id":3410,"lien":"https://thurii.com/","nom":"Auberge de jeunesse La Fontasse","sym":" Residence","coord":{"alt":190},"type":{"id":9,"valeur":"lodging","icon":"lodging"},"places":{"nom":"Places pour dormir","valeur":50},"etat":{"valeur":"undefined"}},"geometry":{"type":"Point","coordinates":[5.50951,43.217]}},{"type":"Feature","id":3411,"properties":{"id":3411,"lien":"https://thurii.com/","nom":"Refuge des Sept Laux","sym":" Residence","coord":{"alt":2135},"type":{"id":9,"valeur":"lodging","icon":"lodging"},"places":{"nom":"Places pour dormir","valeur":36},"etat":{"valeur":"undefined"}},"geometry":{"type":"Point","coordinates":[6.07854,45.249]}},{"type":"Feature","id":3412,"properties":{"id":3412,"lien":"https://thurii.com/","nom":"Cabane du glacier de Tortin","sym":" Residence","coord":{"alt":2992},"type":{"id":9,"valeur":"lodging","icon":"lodging"},"places":{"nom":"Places pour dormir","valeur":21},"etat":{"valeur":"undefined"}},"geometry":{"type":"Point","coordinates":[7.31153,46.0849]}},{"type":"Feature","id":3413,"properties":{"id":3413,"lien":"https://thurii.com/","nom":"Gîte d Etape Le Béranger","sym":" Residence","coord":{"alt":1310},"type":{"id":9,"valeur":"lodging","icon":"lodging"},"places":{"nom":"Places pour dormir","valeur":40},"etat":{"valeur":"undefined"}},"geometry":{"type":"Point","coordinates":[6.05417,44.9097]}},{"type":"Feature","id":3414,"properties":{"id":3414,"lien":"https://thurii.com/","nom":"Refuge de l alpage de Dorbon ou de la Chaux","sym":" Residence","coord":{"alt":1956},"type":{"id":9,"valeur":"lodging","icon":"lodging"},"places":{"nom":"Places pour dormir","valeur":20},"etat":{"valeur":"undefined"}},"geometry":{"type":"Point","coordinates":[7.19041,46.2591]}},{"type":"Feature","id":3415,"properties":{"id":3415,"lien":"https://thurii.com/","nom":"Schilthornhütte","sym":" Residence","coord":{"alt":2432},"type":{"id":9,"valeur":"lodging","icon":"lodging"},"places":{"nom":"Places pour dormir","valeur":25},"etat":{"valeur":"undefined"}},"geometry":{"type":"Point","coordinates":[7.86283,46.57]}},{"type":"Feature","id":3416,"properties":{"id":3416,"lien":"https://thurii.com/","nom":"Roseyres","sym":" Crossing","coord":{"alt":1690},"type":{"id":9,"valeur":"lodging","icon":"lodging"},"places":{"nom":"Places pour dormir","valeur":0},"etat":{"valeur":"undefined"}},"geometry":{"type":"Point","coordinates":[7.19568,46.3598]}},{"type":"Feature","id":3417,"properties":{"id":3417,"lien":"https://thurii.com/","nom":"Bergerie de Radule","sym":" Crossing","coord":{"alt":1375},"type":{"id":9,"valeur":"lodging","icon":"lodging"},"places":{"nom":"Places pour dormir","valeur":10},"etat":{"valeur":"undefined"}},"geometry":{"type":"Point","coordinates":[8.87583,42.3032]}},{"type":"Feature","id":3418,"properties":{"id":3418,"lien":"https://thurii.com/","nom":"Gîte d étape communal","sym":" Residence","coord":{"alt":700},"type":{"id":9,"valeur":"lodging","icon":"lodging"},"places":{"nom":"Places pour dormir","valeur":12},"etat":{"valeur":"undefined"}},"geometry":{"type":"Point","coordinates":[3.58061,45.1595]}},{"type":"Feature","id":3419,"properties":{"id":3419,"lien":"https://thurii.com/","nom":"Cabane des Diablerets","sym":" Residence","coord":{"alt":2485},"type":{"id":9,"valeur":"lodging","icon":"lodging"},"places":{"nom":"Places pour dormir","valeur":32},"etat":{"valeur":"undefined"}},"geometry":{"type":"Point","coordinates":[7.21537,46.3386]}},{"type":"Feature","id":3420,"properties":{"id":3420,"lien":"https://thurii.com/","nom":"Les Petites Ecuries","sym":" Residence","coord":{"alt":720},"type":{"id":9,"valeur":"lodging","icon":"lodging"},"places":{"nom":"Places pour dormir","valeur":16},"etat":{"valeur":"undefined"}},"geometry":{"type":"Point","coordinates":[2.36783,45.8685]}},{"type":"Feature","id":3421,"properties":{"id":3421,"lien":"https://thurii.com/","nom":"Refuge de Rosairy","sym":" Crossing","coord":{"alt":1610},"type":{"id":9,"valeur":"lodging","icon":"lodging"},"places":{"nom":"Places pour dormir","valeur":20},"etat":{"valeur":"undefined"}},"geometry":{"type":"Point","coordinates":[6.298,45.8391]}},{"type":"Feature","id":3422,"properties":{"id":3422,"lien":"https://thurii.com/","nom":"Refuge du Nant du Beurre","sym":" Residence","coord":{"alt":2085},"type":{"id":9,"valeur":"lodging","icon":"lodging"},"places":{"nom":"Places pour dormir","valeur":32},"etat":{"valeur":"undefined"}},"geometry":{"type":"Point","coordinates":[6.56117,45.583]}},{"type":"Feature","id":3423,"properties":{"id":3423,"lien":"https://thurii.com/","nom":"La Loge","sym":" Residence","coord":{"alt":1436},"type":{"id":9,"valeur":"lodging","icon":"lodging"},"places":{"nom":"Places pour dormir","valeur":19},"etat":{"valeur":"undefined"}},"geometry":{"type":"Point","coordinates":[5.95427,46.2927]}},{"type":"Feature","id":3424,"properties":{"id":3424,"lien":"https://thurii.com/","nom":"Gite de la Colle st Michel","sym":" Residence","coord":{"alt":1430},"type":{"id":9,"valeur":"lodging","icon":"lodging"},"places":{"nom":"Places pour dormir","valeur":56},"etat":{"valeur":"undefined"}},"geometry":{"type":"Point","coordinates":[6.59309,44.047]}},{"type":"Feature","id":3425,"properties":{"id":3425,"lien":"https://thurii.com/","nom":"Refuge Econdu","sym":" Residence","coord":{"alt":1884},"type":{"id":9,"valeur":"lodging","icon":"lodging"},"places":{"nom":"Places pour dormir","valeur":18},"etat":{"valeur":"undefined"}},"geometry":{"type":"Point","coordinates":[6.59272,45.626]}},{"type":"Feature","id":3426,"properties":{"id":3426,"lien":"https://thurii.com/","nom":"Refuge de la Cantonnière","sym":" Residence","coord":{"alt":1850},"type":{"id":9,"valeur":"lodging","icon":"lodging"},"places":{"nom":"Places pour dormir","valeur":36},"etat":{"valeur":"undefined"}},"geometry":{"type":"Point","coordinates":[6.75518,44.2431]}},{"type":"Feature","id":3427,"properties":{"id":3427,"lien":"https://thurii.com/","nom":"Refuge de Gève","sym":" Residence","coord":{"alt":1289},"type":{"id":9,"valeur":"lodging","icon":"lodging"},"places":{"nom":"Places pour dormir","valeur":33},"etat":{"valeur":"undefined"}},"geometry":{"type":"Point","coordinates":[5.55999,45.2181]}},{"type":"Feature","id":3428,"properties":{"id":3428,"lien":"https://thurii.com/","nom":"Refuge de St Laurent","sym":" Residence","coord":{"alt":2485},"type":{"id":9,"valeur":"lodging","icon":"lodging"},"places":{"nom":"Places pour dormir","valeur":30},"etat":{"valeur":"undefined"}},"geometry":{"type":"Point","coordinates":[7.3324,46.0981]}},{"type":"Feature","id":3429,"properties":{"id":3429,"lien":"https://thurii.com/","nom":"Refuge de l Alpage","sym":" Residence","coord":{"alt":1977},"type":{"id":9,"valeur":"lodging","icon":"lodging"},"places":{"nom":"Places pour dormir","valeur":28},"etat":{"valeur":"undefined"}},